{"bangsue":[{"formatted_address":"90\/19 Sin Phattana Alley, Tambon Bang Kruai, Amphoe Bang Kruai, Chang Wat Nonthaburi 11130","geometry":{"location":{"lat":13.8074744,"lng":100.5073245},"viewport":{"northeast":{"lat":13.80881342989272,"lng":100.5086503798927},"southwest":{"lat":13.80611377010728,"lng":100.5059507201073}}},"icon":"https:\/\/maps.gstatic.com\/mapfiles\/place_api\/icons\/restaurant-71.png","id":"e2a2bc0a1811feff6e60264d963bb099a998a7a3","name":"Thai Spicy Sausage","opening_hours":{"open_now":true},"photos":[{"height":1920,"html_attributions":["<a href=\"https:\/\/maps.google.com\/maps\/contrib\/100525912399752677135\/photos\">jaaey amorn<\/a>"],"photo_reference":"CmRaAAAAJRsWUUU0htCc5McEwtHzqEVL6Lcg8k7xSPRjD3Vnky3BlEfF8bu_qUvV_MVbCqhtncFIZjix7SxlIfKT_tbBf3uqpc2azAZyTY6BlJn1OH-Nt_gLSyUMR4k_dPNIXM0wEhDAjyK93opVmrZtCu-udEFjGhSnZ9J3WnGcympWuilEf49c9xpHNw","width":2560}],"place_id":"ChIJcSrQhpWb4jARKiOq4d3-MnE","plus_code":{"compound_code":"RG44+XW Bang Kruai, Bang Kruai District, Nonthaburi","global_code":"7P52RG44+XW"},"rating":4.6,"reference":"ChIJcSrQhpWb4jARKiOq4d3-MnE","types":["restaurant","food","point_of_interest","establishment"],"user_ratings_total":22},{"formatted_address":"3, 393, 393\/3 Pracha Rat Sai 2 Rd, Bang Sue, Bangkok 10800","geometry":{"location":{"lat":13.8064872,"lng":100.5211238},"viewport":{"northeast":{"lat":13.80780277989272,"lng":100.5224728798927},"southwest":{"lat":13.80510312010728,"lng":100.5197732201073}}},"icon":"https:\/\/maps.gstatic.com\/mapfiles\/place_api\/icons\/restaurant-71.png","id":"3164ea94ea39c4e304419a2468df13730aea0500","name":"\u0e08\u0e31\u0e4a\u0e01\u0e2b\u0e19\u0e48\u0e2d\u0e22 Jaknoi Restaurant","opening_hours":{"open_now":true},"photos":[{"height":3120,"html_attributions":["<a href=\"https:\/\/maps.google.com\/maps\/contrib\/114010506483392951544\/photos\">A Google User<\/a>"],"photo_reference":"CmRaAAAAUW2raHaGXaf0xBASYTKm6PNBBpvAGF3GZh2U1dmHFM-EWTXrLv7QWJBfW0Y7i8H7nelPMAL_ql_dwS6KlrMr7eb2JCB2m6HhXePnG0BO_VHhMFT3d2yut2oMIp2zLbbzEhDe8zjAh8ekF10kXUptiYwqGhQ2YSLDXC-QvzKkpuyw3NZz-Vi1xQ","width":4160}],"place_id":"ChIJ-yZhqo2b4jARsYKjNsLniIw","plus_code":{"compound_code":"RG4C+HC Bangkok","global_code":"7P52RG4C+HC"},"rating":4.4,"reference":"ChIJ-yZhqo2b4jARsYKjNsLniIw","types":["restaurant","food","point_of_interest","establishment"],"user_ratings_total":57},{"formatted_address":"162, 1 Pracha Rat Sai 2 Rd, Khwaeng Bang Sue, Khet Bang Sue, Krung Thep Maha Nakhon 10800","geometry":{"location":{"lat":13.8052051,"lng":100.5241228},"viewport":{"northeast":{"lat":13.80679072989272,"lng":100.5256405798927},"southwest":{"lat":13.80409107010728,"lng":100.5229409201073}}},"icon":"https:\/\/maps.gstatic.com\/mapfiles\/place_api\/icons\/restaurant-71.png","id":"376ef2cf6ae0e24b18cd184b9cd58643c68823f1","name":"MK Restaurant-Gateway Bangsue","opening_hours":{"open_now":true},"photos":[{"height":1365,"html_attributions":["<a href=\"https:\/\/maps.google.com\/maps\/contrib\/117840845425636014645\/photos\">BIGSHOW LOWLAR<\/a>"],"photo_reference":"CmRaAAAA84rwWlAj5k6AS3P7qSJwr1aV7keLmB7zWnZobZTXKMsVNCtgN0TvEtiWhPaeW11D2Op4vhtVvjsYWt_OjdYFf-5FckITSvi7JNQrvrYmcnhhL7Sjn_F-lZQ2_8U_UzhVEhAyndGn4Xp6boyAJDyQKNAWGhSNBz8BRYMsTNUQYWVnunzT1bey4g","width":2048}],"place_id":"ChIJdcdrnIyb4jARidxLOO6zAZs","plus_code":{"compound_code":"RG4F+3J Bangkok","global_code":"7P52RG4F+3J"},"price_level":2,"rating":4.1,"reference":"ChIJdcdrnIyb4jARidxLOO6zAZs","types":["restaurant","food","point_of_interest","establishment"],"user_ratings_total":21},{"formatted_address":"Yothathikan Nonthaburi 2008 Rd, Tambon Bang Phai, Amphoe Mueang Nonthaburi, Chang Wat Nonthaburi 11000","geometry":{"location":{"lat":13.817836,"lng":100.499337},"viewport":{"northeast":{"lat":13.81932487989272,"lng":100.5006410798927},"southwest":{"lat":13.81662522010728,"lng":100.4979414201073}}},"icon":"https:\/\/maps.gstatic.com\/mapfiles\/place_api\/icons\/restaurant-71.png","id":"7d3b046830194bc679d8a0e18483bbdbd2c67023","name":"Three Mangoes \u0e23\u0e34\u0e21\u0e19\u0e49\u0e33 \u0e1e\u0e23\u0e30\u0e23\u0e32\u0e21 5","opening_hours":{"open_now":false},"photos":[{"height":3120,"html_attributions":["<a href=\"https:\/\/maps.google.com\/maps\/contrib\/114940797701605291070\/photos\">Rattanaporn Lorraksa<\/a>"],"photo_reference":"CmRaAAAAJC9StKWjPvIVCiup5bWb3ksEKW4tt6QaPuN0wsHPva43ff_ozA9JHBUZU_i-hRDVDmnGp9lO8oTT3fXgQUjL23Xyg-sVfq--qxJS2p3vYCLtp698aM5tBAqepd9vH81gEhBipb69-eADDRkn6n2rYKwjGhQqBD41ogvcmCR2HY9JbUjmvkdJ0A","width":4160}],"place_id":"ChIJW5UOAaWb4jARnc6_WNZvTfM","plus_code":{"compound_code":"RF9X+4P Bang Phai, Mueang Nonthaburi District, Nonthaburi","global_code":"7P52RF9X+4P"},"price_level":2,"rating":4,"reference":"ChIJW5UOAaWb4jARnc6_WNZvTfM","types":["restaurant","food","point_of_interest","establishment"],"user_ratings_total":142},{"formatted_address":"367, 5 \u0e16\u0e19\u0e19 \u0e01\u0e23\u0e38\u0e07\u0e40\u0e17\u0e1e - \u0e19\u0e19\u0e17\u0e1a\u0e38\u0e23\u0e35 Khwaeng Bang Sue, Khet Bang Sue, Krung Thep Maha Nakhon 10800","geometry":{"location":{"lat":13.8110418,"lng":100.5312451},"viewport":{"northeast":{"lat":13.81238772989272,"lng":100.5326421298927},"southwest":{"lat":13.80968807010728,"lng":100.5299424701073}}},"icon":"https:\/\/maps.gstatic.com\/mapfiles\/place_api\/icons\/restaurant-71.png","id":"518b0caf649263329897198c6bef34d120665ca5","name":"Rotdet Tao Pun","opening_hours":{"open_now":true},"photos":[{"height":640,"html_attributions":["<a href=\"https:\/\/maps.google.com\/maps\/contrib\/101630529205289786035\/photos\">A Google User<\/a>"],"photo_reference":"CmRaAAAAicYfDfX3SKWU3Lv4T_5zn-JytCH8ZJ06f12dyZsjRkBpAKbZzgIuXlgCM8LLf-HwLVPSAcxEdxaI2MjkLkXeGeaLV08Qyqpl3hWVm5fJHLbkQSz29ANa1gr2PWx2s5u3EhCTsuyY5r2S6lyI_mKOUpvxGhSFMi3MLaDDhHPgReIXLF7evnL0Tg","width":960}],"place_id":"ChIJ6ZD3SHac4jARePDT9WBypow","plus_code":{"compound_code":"RG6J+CF Bangkok","global_code":"7P52RG6J+CF"},"rating":3.9,"reference":"ChIJ6ZD3SHac4jARePDT9WBypow","types":["restaurant","food","point_of_interest","establishment"],"user_ratings_total":24},{"formatted_address":"Gateway Bangsue 162\/1-2,168\/10 Pracharaj Sai 2 Raod, Bang Sue, Bangkok 10800","geometry":{"location":{"lat":13.8056377,"lng":100.5238886},"viewport":{"northeast":{"lat":13.80702992989272,"lng":100.5255146798927},"southwest":{"lat":13.80433027010728,"lng":100.5228150201073}}},"icon":"https:\/\/maps.gstatic.com\/mapfiles\/place_api\/icons\/restaurant-71.png","id":"9ae33b1866a8f6aa75c8767012811639703dd1cd","name":"The Pizza Company","photos":[{"height":3456,"html_attributions":["<a href=\"https:\/\/maps.google.com\/maps\/contrib\/110372191698158794359\/photos\">Rati Watanatada<\/a>"],"photo_reference":"CmRaAAAASkrcoZNbkjxAwkDxY4FK9_8F8Z8PzAPd5ciDefhJ3lw_NwTXMvRiWpuuq31IlBU5QkUvNArhb7w8A6hbtH3yl22FOEYJ6xpdA4OBrcPnTdOADy2oTVKE4LToaoTZVa4VEhBCt7DPuzupUqB6CEObUUZTGhTG1Ov5sBI3eAg2Tee9SolzRGROeA","width":4608}],"place_id":"ChIJ_zIR4kWb4jARGqmUEOmn1c0","plus_code":{"compound_code":"RG4F+7H Bangkok","global_code":"7P52RG4F+7H"},"price_level":2,"rating":5,"reference":"ChIJ_zIR4kWb4jARGqmUEOmn1c0","types":["restaurant","food","point_of_interest","establishment"],"user_ratings_total":2},{"formatted_address":"162\/1 Pracha Rat Sai 2 Rd, Khwaeng Bang Sue, Khet Bang Sue, Krung Thep Maha Nakhon 10800","geometry":{"location":{"lat":13.8056303,"lng":100.5236035},"viewport":{"northeast":{"lat":13.80705057989272,"lng":100.5247943798927},"southwest":{"lat":13.80435092010728,"lng":100.5220947201073}}},"icon":"https:\/\/maps.gstatic.com\/mapfiles\/place_api\/icons\/restaurant-71.png","id":"4bf562a7dca1da4e7f488b40f5a335fa2374bc8f","name":"Time&Tales gateway bangsue","opening_hours":{"open_now":true},"photos":[{"height":2976,"html_attributions":["<a href=\"https:\/\/maps.google.com\/maps\/contrib\/105359838543665032930\/photos\">Pty L<\/a>"],"photo_reference":"CmRaAAAAoTvOpb-emLKLy-uAXG5tKksi7vZ8CbQ8RP47qVrBQvH3IQrdDPWEQj6RuQWuF24I0SHoCQdZ9df3RpXjZ7DXi_Vk8uySDwpHYXPpidO3bI92nkXN0cmpiys29no8lGL-EhCB9cSkMXfn9BoIpkVY-6NmGhTTQAlTIXxTQPzJoehz8jzJKZcBLw","width":3968}],"place_id":"ChIJh67w6WSb4jARhDt-7y2zPEk","plus_code":{"compound_code":"RG4F+7C Bangkok","global_code":"7P52RG4F+7C"},"rating":4.6,"reference":"ChIJh67w6WSb4jARhDt-7y2zPEk","types":["restaurant","food","point_of_interest","establishment"],"user_ratings_total":5},{"formatted_address":"168 Gateway AT Bangsue \u0e0a\u0e31\u0e49\u0e19 G 162\/1-2 10 Pracha Rat Sai 2 Rd, Bang Sue, Bangkok 10800","geometry":{"location":{"lat":13.8062237,"lng":100.5221815},"viewport":{"northeast":{"lat":13.80762057989272,"lng":100.5235297298927},"southwest":{"lat":13.80492092010728,"lng":100.5208300701073}}},"icon":"https:\/\/maps.gstatic.com\/mapfiles\/place_api\/icons\/restaurant-71.png","id":"142b2c8bf5d9f22dd5bf9b9e5533a29df4bbfb71","name":"Miss Mamon","opening_hours":{"open_now":true},"photos":[{"height":3832,"html_attributions":["<a href=\"https:\/\/maps.google.com\/maps\/contrib\/107001800734594849485\/photos\">A Google User<\/a>"],"photo_reference":"CmRaAAAAqYkQx5xHWeEHZKtjBMSOv1cMmAEFGDyzMj0CC0iEK9ke73HCDvpA5H2ETwx94KH-iTUKBL131SiSLLtCCSDOt5YF0XEj1s9vu5XPZm3CKVebg8BuyW0tnDMGZMTj47dtEhAo0NWWeBUlwxZCceShcae-GhQfwyT3bZfAuWJCivh7ZlFP2Plc2Q","width":3112}],"place_id":"ChIJTX6sLGeb4jARYxj4IV7hJwg","plus_code":{"compound_code":"RG4C+FV Bangkok","global_code":"7P52RG4C+FV"},"rating":4.8,"reference":"ChIJTX6sLGeb4jARYxj4IV7hJwg","types":["restaurant","food","point_of_interest","establishment"],"user_ratings_total":4},{"formatted_address":"662 Rd, Techawanit, Bang Sue, Bangkok 10800","geometry":{"location":{"lat":13.802348,"lng":100.534942},"viewport":{"northeast":{"lat":13.80373022989272,"lng":100.5362260798927},"southwest":{"lat":13.80103057010728,"lng":100.5335264201073}}},"icon":"https:\/\/maps.gstatic.com\/mapfiles\/place_api\/icons\/restaurant-71.png","id":"9d1e0492e2153404590409c04b24465a6aad9f2f","name":"Kumamura Food.Bar","opening_hours":{"open_now":false},"photos":[{"height":2160,"html_attributions":["<a href=\"https:\/\/maps.google.com\/maps\/contrib\/110539935311699142571\/photos\">Pongdanai Thaoju<\/a>"],"photo_reference":"CmRaAAAA56ZZ7MFL6NroBWPevCoFCGYyDakoa9wLsf8Nt1W92nFCgsd6dUj0UGKFpWQq5nOji-WTVEEUf9tCjyUs3M8MohqKZuSYBAsKzjS4Sbr2qXprMdLfjguuGpgf3qbQIgc4EhBRRYXIaQMc56itLphwi8PKGhS8MO1IPWV9Z6v3olC1AmQHAJzmNw","width":3840}],"place_id":"ChIJdWfiWQuc4jARi2oLVe-QNGs","plus_code":{"compound_code":"RG2M+WX Bangkok","global_code":"7P52RG2M+WX"},"rating":4.2,"reference":"ChIJdWfiWQuc4jARi2oLVe-QNGs","types":["restaurant","food","point_of_interest","establishment"],"user_ratings_total":94},{"formatted_address":"888, Big C Wongsawang, Phibun Songkham Road, Bang Sue, Khet Bang Sue, Bangkok, 10800","geometry":{"location":{"lat":13.8267455,"lng":100.5283678},"viewport":{"northeast":{"lat":13.82818337989272,"lng":100.5296380298927},"southwest":{"lat":13.82548372010728,"lng":100.5269383701073}}},"icon":"https:\/\/maps.gstatic.com\/mapfiles\/place_api\/icons\/restaurant-71.png","id":"dc93f3fb1658002bd69651540317dd99822c711b","name":"MK Restaurants","opening_hours":{"open_now":true},"photos":[{"height":3366,"html_attributions":["<a href=\"https:\/\/maps.google.com\/maps\/contrib\/104822309547054761050\/photos\">Yingyot Srikamonkrid<\/a>"],"photo_reference":"CmRaAAAA6mWWpTAEL5Zkk2qnBwmFfQpbsg_JOyFBesMuuIIrX7s2FU80Tet471cDSoTOhP_bCPyFehCRmoHgc-ldQ3L3HjDW43jcIDziSCNmHCK2fRfN2bIwkEsQQbsuNFu_ox70EhBlcxzvTpXGBhjUTUpFVVJuGhRx1KEfOon9Odgbp_I0rkuUYokEeQ","width":5984}],"place_id":"ChIJ7SQB83-b4jAR66Em1dydPTA","plus_code":{"compound_code":"RGGH+M8 Bangkok","global_code":"7P52RGGH+M8"},"price_level":2,"rating":3.4,"reference":"ChIJ7SQB83-b4jAR66Em1dydPTA","types":["restaurant","food","point_of_interest","establishment"],"user_ratings_total":8},{"formatted_address":"Sena Place Hotel Bangkok, 17 Phaholyothin Rd., Soi 11, Khwaeng Wong Sawang, Khet Bang Sue, Krung Thep Maha Nakhon 10800","geometry":{"location":{"lat":13.826837,"lng":100.5198066},"viewport":{"northeast":{"lat":13.82820762989272,"lng":100.5211807798927},"southwest":{"lat":13.82550797010728,"lng":100.5184811201073}}},"icon":"https:\/\/maps.gstatic.com\/mapfiles\/place_api\/icons\/restaurant-71.png","id":"f840ecfb2930022a47596008627b92c0d38375fa","name":"Newton Co., Ltd.","place_id":"ChIJx8n9EICc4jARRNQk1cFPfmc","plus_code":{"compound_code":"RGG9+PW Bangkok","global_code":"7P52RGG9+PW"},"rating":1,"reference":"ChIJx8n9EICc4jARRNQk1cFPfmc","types":["restaurant","food","point_of_interest","establishment"],"user_ratings_total":1},{"formatted_address":"326\/178, Pracha Rat Sai 1 Road, Bang Sue, Khet Bang Sue, Bangkok, 10800, 10800","geometry":{"location":{"lat":13.8080596,"lng":100.5218196},"viewport":{"northeast":{"lat":13.80941312989272,"lng":100.5231101298927},"southwest":{"lat":13.80671347010728,"lng":100.5204104701073}}},"icon":"https:\/\/maps.gstatic.com\/mapfiles\/place_api\/icons\/restaurant-71.png","id":"3a3ec3969fe5feeb226fc8770e239de0dd832cef","name":"Ran Kaeng Pak Tai Nakhon Si Thammarat","place_id":"ChIJk2-aN4yb4jARdOKlZEul29I","plus_code":{"compound_code":"RG5C+6P Bangkok","global_code":"7P52RG5C+6P"},"rating":0,"reference":"ChIJk2-aN4yb4jARdOKlZEul29I","types":["restaurant","food","point_of_interest","establishment"],"user_ratings_total":0},{"formatted_address":"324\/2 Soi Pracha Rat Sai 1 Soi20, Pracha Rat Sai 1 Road, Khwaeng Bang Sue, Khet Bang Sue, Bangkok, 10800, 10800","geometry":{"location":{"lat":13.8075695,"lng":100.5218999},"viewport":{"northeast":{"lat":13.80889952989272,"lng":100.5232503798927},"southwest":{"lat":13.80619987010728,"lng":100.5205507201073}}},"icon":"https:\/\/maps.gstatic.com\/mapfiles\/place_api\/icons\/restaurant-71.png","id":"4384450c175798dbf3a123ed53054577d7a0e425","name":"Khun Pichet Shop","place_id":"ChIJkzIHRoyb4jARGfRLCKh5Wdk","plus_code":{"compound_code":"RG5C+2Q Bangkok","global_code":"7P52RG5C+2Q"},"rating":0,"reference":"ChIJkzIHRoyb4jARGfRLCKh5Wdk","types":["restaurant","food","point_of_interest","establishment"],"user_ratings_total":0},{"formatted_address":"67\/6 Pracharat Soi 4 Pracharat rd. Bangsue District, Bangkok","geometry":{"location":{"lat":13.8012667,"lng":100.5218658},"viewport":{"northeast":{"lat":13.80258457989272,"lng":100.5232194298927},"southwest":{"lat":13.79988492010728,"lng":100.5205197701073}}},"icon":"https:\/\/maps.gstatic.com\/mapfiles\/place_api\/icons\/restaurant-71.png","id":"7bfaca40a08b00ca82a551d9fe84f64412ea2909","name":"Jaroon-Dang","photos":[{"height":2448,"html_attributions":["<a href=\"https:\/\/maps.google.com\/maps\/contrib\/113344202471346317150\/photos\">PuayNee Ho<\/a>"],"photo_reference":"CmRaAAAARydqny3085zTLmpi38PlRmU3gRhpJvWNVNoDVnSnQlrLU0KTTFhEtkHi2jbbrtGG3u3be9RZP0wdSCQJs7Wl1lYet5BNKR-OzH0d4vMXE-lOIfiZMX7x0D6fpFT-jkQoEhCuPvSMp0lXksrKaUwUKR2ZGhR0NeGyK_ogPCYUvyZFiw8sJDmUxQ","width":3264}],"place_id":"ChIJVzKGBfOb4jAR6w5t7Ty4AEE","plus_code":{"compound_code":"RG2C+GP Bangkok","global_code":"7P52RG2C+GP"},"rating":3.8,"reference":"ChIJVzKGBfOb4jAR6w5t7Ty4AEE","types":["restaurant","food","point_of_interest","establishment"],"user_ratings_total":17},{"formatted_address":"1353 \u0e16\u0e19\u0e19\u0e1b\u0e23\u0e30\u0e0a\u0e32\u0e23\u0e32\u0e29\u0e0e\u0e23\u0e4c 1 Khwaeng Wong Sawang, Khet Bang Sue, Krung Thep Maha Nakhon 10800","geometry":{"location":{"lat":13.8149852,"lng":100.515347},"viewport":{"northeast":{"lat":13.81633502989273,"lng":100.5166968298927},"southwest":{"lat":13.81363537010728,"lng":100.5139971701073}}},"icon":"https:\/\/maps.gstatic.com\/mapfiles\/place_api\/icons\/restaurant-71.png","id":"a62840fb41b96b6602d3619d2f2a8e1d4222df90","name":"OYua River Terrace","opening_hours":{"open_now":false},"photos":[{"height":3096,"html_attributions":["<a href=\"https:\/\/maps.google.com\/maps\/contrib\/109952594694034416260\/photos\">xamesv1 .<\/a>"],"photo_reference":"CmRaAAAAEt6f0rxQ_AtskMqVpHnE1U4DGa7HNX_OSoSOX4yd4H95N1I8FgMpJseJ6MV_8-mrBz7P7W3MRKt8CPB2y2Z-p02MZUrEk-cFIE2DmynzBX75JAkrYpecq44ux5s8LAFSEhCaF7LIBFDBb9fvdpsKR-lRGhRS3_Ukd8GNFUERjg1XETFH9dmW8g","width":5504}],"place_id":"ChIJCccQfpCb4jARA6fjIwuFJaA","plus_code":{"compound_code":"RG78+X4 Bangkok","global_code":"7P52RG78+X4"},"price_level":2,"rating":4.1,"reference":"ChIJCccQfpCb4jARA6fjIwuFJaA","types":["night_club","bar","restaurant","food","point_of_interest","establishment"],"user_ratings_total":992},{"formatted_address":"596, Pracharat Sai 1 Road, Bang Sue, Khet Bang Sue, Bangkok, 10800, 10800","geometry":{"location":{"lat":13.810378,"lng":100.523946},"viewport":{"northeast":{"lat":13.81172782989272,"lng":100.5252958298927},"southwest":{"lat":13.80902817010728,"lng":100.5225961701073}}},"icon":"https:\/\/maps.gstatic.com\/mapfiles\/place_api\/icons\/restaurant-71.png","id":"8d4e7a5a51c9d1e784c1cb3fd4ff2902edd24a6c","name":"Ahan Ban Pa Daeng","place_id":"ChIJER2wtI6b4jARY9xRfPi2ClA","plus_code":{"compound_code":"RG6F+5H Bangkok","global_code":"7P52RG6F+5H"},"rating":0,"reference":"ChIJER2wtI6b4jARY9xRfPi2ClA","types":["restaurant","food","point_of_interest","establishment"],"user_ratings_total":0},{"formatted_address":"Bang Sue, Bangkok 10800","geometry":{"location":{"lat":13.8057224,"lng":100.5242033},"viewport":{"northeast":{"lat":13.80707562989272,"lng":100.5256719298927},"southwest":{"lat":13.80437597010728,"lng":100.5229722701073}}},"icon":"https:\/\/maps.gstatic.com\/mapfiles\/place_api\/icons\/restaurant-71.png","id":"719947d73c94f77ea69bfd34ede390ee1c91e1f6","name":"Sukiya Gateway Bangsue","opening_hours":{"open_now":true},"photos":[{"height":3024,"html_attributions":["<a href=\"https:\/\/maps.google.com\/maps\/contrib\/106007489869168649908\/photos\">Chayapat Benz Jitphongsaikul<\/a>"],"photo_reference":"CmRaAAAAzJGMfxdCeOCkPDTtAk8UC5P5aS96Kbqg0u8yMGabH1oW4bSVAwc1b5qtYKzJGOGHiKr6e9AoFD2Lx78y46tGCm15qLiZposVvhVHHUGC1LToKkQO79w4G_rBTy7BNzslEhB5Vv48jTBfj_jYtmr4TizHGhR6ux1pQF9DLM3gPEck6AOWTqCyzA","width":4032}],"place_id":"ChIJoT_7Mqeb4jARQLnwPLnBVEo","plus_code":{"compound_code":"RG4F+7M Bangkok","global_code":"7P52RG4F+7M"},"rating":3.1,"reference":"ChIJoT_7Mqeb4jARQLnwPLnBVEo","types":["restaurant","food","point_of_interest","establishment"],"user_ratings_total":10},{"formatted_address":"89\/5, Soi Pracharaj 2, Bangsue, Khet Bangsue, Bangkok, 10800, 10800","geometry":{"location":{"lat":13.806523,"lng":100.527637},"viewport":{"northeast":{"lat":13.80783167989272,"lng":100.5289867798927},"southwest":{"lat":13.80513202010728,"lng":100.5262871201073}}},"icon":"https:\/\/maps.gstatic.com\/mapfiles\/place_api\/icons\/restaurant-71.png","id":"938a89701a9ee87deb06986f0fa49a4cc7f2bd2a","name":"Ning Phochana","place_id":"ChIJE86ZWYqb4jARZzMvaLBbG9A","plus_code":{"compound_code":"RG4H+J3 Bangkok","global_code":"7P52RG4H+J3"},"rating":0,"reference":"ChIJE86ZWYqb4jARZzMvaLBbG9A","types":["restaurant","food","point_of_interest","establishment"],"user_ratings_total":0},{"formatted_address":"1285\/1 Prachachuen Rd. Bangsue Bangkok Bangsue Bangkok 10800","geometry":{"location":{"lat":13.8237916,"lng":100.5373319},"viewport":{"northeast":{"lat":13.82513427989272,"lng":100.5387158298927},"southwest":{"lat":13.82243462010728,"lng":100.5360161701073}}},"icon":"https:\/\/maps.gstatic.com\/mapfiles\/place_api\/icons\/restaurant-71.png","id":"696cd08afcb45b94a249566d32de9f24fafcc0d1","name":"The Pizza Company","opening_hours":{"open_now":true},"photos":[{"height":4160,"html_attributions":["<a href=\"https:\/\/maps.google.com\/maps\/contrib\/102292182754706181211\/photos\">Prince Gajjar<\/a>"],"photo_reference":"CmRaAAAA4Bj4jFJx6Bp7gJ6qBWa1c0raP6PSBw_V5xubGVOUusKm9TVnDGaFXbYqc5B4Di4vqJZEpd6rPgfw--yNGNio8lQdFpeaG1WqcWvBwNoHXx3PtW0X2qt2VQeXMbgj16rPEhBf8w0cHJYkWcEeNAendHeIGhR1fy1y5YevAbyCZ45pNt99Bu_6Yw","width":3120}],"place_id":"ChIJAQC_8pyb4jARJfosoUhV0Mo","plus_code":{"compound_code":"RGFP+GW Bangkok","global_code":"7P52RGFP+GW"},"price_level":2,"rating":3.6,"reference":"ChIJAQC_8pyb4jARJfosoUhV0Mo","types":["meal_delivery","meal_takeaway","restaurant","food","point_of_interest","establishment"],"user_ratings_total":7},{"formatted_address":"\u0e0a\u0e31\u0e49\u0e19 1 \u0e1a\u0e34\u0e4a\u0e01\u0e0b\u0e35\u0e27\u0e07\u0e28\u0e4c\u0e2a\u0e27\u0e48\u0e32\u0e07 \u0e16\u0e19\u0e19\u0e27\u0e07\u0e28\u0e4c\u0e2a\u0e27\u0e48\u0e32\u0e07, \u0e27\u0e07\u0e28\u0e4c\u0e2a\u0e27\u0e48\u0e32\u0e07, \u0e1a\u0e32\u0e07\u0e0b\u0e37\u0e48\u0e2d, Bangkok 10800","geometry":{"location":{"lat":13.8278123,"lng":100.5284529},"viewport":{"northeast":{"lat":13.82925862989272,"lng":100.5297201298927},"southwest":{"lat":13.82655897010728,"lng":100.5270204701073}}},"icon":"https:\/\/maps.gstatic.com\/mapfiles\/place_api\/icons\/restaurant-71.png","id":"0d36c6072722067e638915170156af2bb653b915","name":"\u0e0a\u0e32\u0e1a\u0e39 \u0e0a\u0e32\u0e1a\u0e39 \u0e19\u0e32\u0e07\u0e43\u0e19 \u0e1a\u0e34\u0e4a\u0e01\u0e0b\u0e35 \u0e27\u0e07\u0e28\u0e4c\u0e2a\u0e27\u0e48\u0e32\u0e07","opening_hours":{"open_now":true},"photos":[{"height":1536,"html_attributions":["<a href=\"https:\/\/maps.google.com\/maps\/contrib\/112448181408606879975\/photos\">A Google User<\/a>"],"photo_reference":"CmRaAAAAAfB3WyH-FYSyveeN4ihTOapJiVxGBmzYE2NgLHBSnL9VCNAIaC5QSAqJBN0GyeWOh8KCDPIzsBp83M65xsFPkXoJBw0XBdE4xDQyDSxqikNWnBS34TUYWco6na0dDtIHEhAKkcfL8VwfQFW44j_GezJOGhRavjU8UuHiEI8WFtskU5YRH0KyQA","width":2048}],"place_id":"ChIJ5w19kX-b4jARW_mSw4s3kHw","plus_code":{"compound_code":"RGHH+49 Bangkok","global_code":"7P52RGHH+49"},"rating":4.1,"reference":"ChIJ5w19kX-b4jARW_mSw4s3kHw","types":["restaurant","food","point_of_interest","establishment"],"user_ratings_total":36}],"%E0%B8%9A%E0%B9%89%E0%B8%B2%E0%B8%99":[{"formatted_address":"9 m.5 Payupnai, Tambon Wang Chan, Rayong 21210","geometry":{"location":{"lat":13.0123289,"lng":101.4559906},"viewport":{"northeast":{"lat":13.01374272989272,"lng":101.4572946798927},"southwest":{"lat":13.01104307010728,"lng":101.4545950201073}}},"icon":"https:\/\/maps.gstatic.com\/mapfiles\/place_api\/icons\/restaurant-71.png","id":"cc596244a0219897a05742dfcd97e54172e8fd68","name":"\u0e04\u0e23\u0e31\u0e27\u0e1a\u0e49\u0e32\u0e19\u0e40\u0e01\u0e49\u0e32","photos":[{"height":4224,"html_attributions":["<a href=\"https:\/\/maps.google.com\/maps\/contrib\/118149647042521623964\/photos\">EKARAT CHAIPRAWAT<\/a>"],"photo_reference":"CmRaAAAAkncVFVbzaok6JBj7l7q8aXsTGu6PtiHAlMJgaj-6kXNjH1XdFw_plLf3fdHuitCx0ZRPqq9HaCziwyqy51Tp_2xHsczaqxbjyiJ7yOrS3eY7HZ_ikPxauSWqtcbqWRwtEhAYr1apycLSq03LLduYMB77GhSp_RIjZC2kMzqZO_HL6-kvTbBszQ","width":5632}],"place_id":"ChIJ0QtfvpIlAzERvOm3q8is3c8","plus_code":{"compound_code":"2F64+W9 Pa Yup Nai, Wang Chan District, Rayong","global_code":"7P532F64+W9"},"rating":4.3,"reference":"ChIJ0QtfvpIlAzERvOm3q8is3c8","types":["restaurant","food","point_of_interest","establishment"],"user_ratings_total":3},{"formatted_address":"\u0e17\u0e32\u0e07\u0e2b\u0e25\u0e27\u0e07 \u0e2b\u0e21\u0e32\u0e22\u0e40\u0e25\u0e02 344 \u0e21 .2 \u0e15 \u0e1e \u0e25\u0e07 \u0e15\u0e32 \u0e40\u0e2d\u0e35\u0e48\u0e22\u0e21 \u0e2d \u0e27\u0e31 \u0e07\u0e31\u0e19 \u0e17 \u0e23\u0e4c \u0e08, Rayong","geometry":{"location":{"lat":12.9220307,"lng":101.5289407},"viewport":{"northeast":{"lat":12.92330162989272,"lng":101.5303073298927},"southwest":{"lat":12.92060197010727,"lng":101.5276076701073}}},"icon":"https:\/\/maps.gstatic.com\/mapfiles\/place_api\/icons\/restaurant-71.png","id":"22cfc4ddb0c64578f3e6d1307af2f11df7f33d43","name":"\u0e23\u0e49\u0e32\u0e19\u0e1a\u0e49\u0e32\u0e19\u0e15\u0e49\u0e19\u0e44\u0e21\u0e49","opening_hours":{"open_now":true},"photos":[{"height":2268,"html_attributions":["<a href=\"https:\/\/maps.google.com\/maps\/contrib\/102593916395914695272\/photos\">Tanatpol C<\/a>"],"photo_reference":"CmRaAAAAHt70_8GqDzhDw08GqdM_w68TQl-88CJo_nI24ZzZo35Y3aO4nvmieS3O1wQ_s82sRPdIfaOV7Ei1zndOdux9ULroLwfIfun2OhpAWFQUOmyViuBU6MMkEluUibZxlvezEhAnOc840azQnfu37l7_PPyeGhRKjXNHKBPXTEZ8aKhWBG7VbDg4Gw","width":4032}],"place_id":"ChIJRTcFR8kiAzERx0cJ_wrAIAs","plus_code":{"compound_code":"WGCH+RH Plong Ta Iam, Wang Chan District, Rayong","global_code":"7P43WGCH+RH"},"rating":3.9,"reference":"ChIJRTcFR8kiAzERx0cJ_wrAIAs","types":["restaurant","food","point_of_interest","establishment"],"user_ratings_total":68},{"formatted_address":"71\/1-2 \u0e2b\u0e21\u0e39\u0e48\u0e1a\u0e49\u0e32\u0e19\u0e1e\u0e24\u0e01\u0e29\u0e32\u0e01\u0e32\u0e0d\u0e08\u0e19\u0e4c 1 \u0e0b\u0e2d\u0e22\u0e17\u0e48\u0e32\u0e21\u0e30\u0e02\u0e32\u0e21 10 \u0e16.\u0e41\u0e2a\u0e07\u0e0a\u0e39\u0e42\u0e15, \u0e17\u0e48\u0e32\u0e21\u0e30\u0e02\u0e32\u0e21, \u0e40\u0e21\u0e37\u0e2d\u0e07, Kanchanaburi 71000","geometry":{"location":{"lat":13.151351,"lng":101.490104},"viewport":{"northeast":{"lat":13.1553227,"lng":101.4913127298927},"southwest":{"lat":13.1500271,"lng":101.4886130701073}}},"icon":"https:\/\/maps.gstatic.com\/mapfiles\/place_api\/icons\/restaurant-71.png","id":"57ad961ef3b300cbf47aa099ada02850b2f9c340","name":"\u0e23\u0e49\u0e32\u0e19\u0e1a\u0e49\u0e32\u0e19\u0e02\u0e49\u0e32\u0e27\u0e2a\u0e21\u0e40\u0e14\u0e47\u0e08","place_id":"ChIJZxx_tjovAzERuys2KBCBQMA","plus_code":{"compound_code":"5F2R+G2 Khlong Phlu, Nong Yai District, Chon Buri","global_code":"7P535F2R+G2"},"rating":0,"reference":"ChIJZxx_tjovAzERuys2KBCBQMA","types":["restaurant","food","point_of_interest","establishment"],"user_ratings_total":0},{"formatted_address":"8 1 Tambon Lahan, Amphoe Pluak Daeng, Chang Wat Rayong 21140","geometry":{"location":{"lat":12.9153645,"lng":101.3159314},"viewport":{"northeast":{"lat":12.91671302989272,"lng":101.3173363798927},"southwest":{"lat":12.91401337010728,"lng":101.3146367201073}}},"icon":"https:\/\/maps.gstatic.com\/mapfiles\/place_api\/icons\/restaurant-71.png","id":"747b1bbe12f0a83d5281118b0706d5828475b4dd","name":"\u0e01.\u0e44\u0e01\u0e48\u0e2d\u0e1a\u0e42\u0e2d\u0e48\u0e07 \u0e40\u0e08\u0e49\u0e2a\u0e32\u0e23\u0e35\u0e48\u0e1a\u0e49\u0e32\u0e19\u0e1b\u0e32\u0e01\u0e41\u0e1e\u0e23\u0e01","opening_hours":{"open_now":true},"photos":[{"height":3888,"html_attributions":["<a href=\"https:\/\/maps.google.com\/maps\/contrib\/103309256396453260411\/photos\">\u0e1e\u0e24\u0e01\u0e29\u0e4c \u0e40\u0e01\u0e15\u0e38\u0e41\u0e01\u0e49\u0e27\u0e21\u0e13\u0e35\u0e23\u0e31\u0e15\u0e19\u0e4c<\/a>"],"photo_reference":"CmRaAAAAcQ-xh35NSXpVjq5MsoQdhi5ZAQ0DoOCWEXWJUOeUB85er48oL8rN_F5ga7dyCwjRA9BsjkOl1eAvswtljQnS8S6hBcc6KJr2NZKfSkyjxpqYNjGzhIS1I5yL9xl2pZqbEhCZnwUBk2h0gVlzEPrhzOyFGhQ7B-Ot4a0ZfounbApMpNxR3x8Law","width":5184}],"place_id":"ChIJO7SnC3LgAjERuQdfKELn2mE","plus_code":{"compound_code":"W888+49 Lahan, Pluak Daeng District, Rayong","global_code":"7P43W888+49"},"rating":4.3,"reference":"ChIJO7SnC3LgAjERuQdfKELn2mE","types":["restaurant","food","point_of_interest","establishment"],"user_ratings_total":59},{"formatted_address":"8\/3 \u0e21.1 \u0e19\u0e34\u0e04\u0e21\u0e1e\u0e31\u0e12\u0e19\u0e32 Rayong 21180","geometry":{"location":{"lat":12.846071,"lng":101.31916},"viewport":{"northeast":{"lat":12.84739057989272,"lng":101.3205024298927},"southwest":{"lat":12.84469092010728,"lng":101.3178027701073}}},"icon":"https:\/\/maps.gstatic.com\/mapfiles\/place_api\/icons\/restaurant-71.png","id":"4aa246c2dd15935211afc76a0391a1d748c42bec","name":"\u0e23\u0e49\u0e32\u0e19\u0e04\u0e23\u0e31\u0e27\u0e1a\u0e49\u0e32\u0e19\u0e40\u0e23\u0e32 \u0e2d.\u0e19\u0e34\u0e04\u0e21\u0e1e\u0e31\u0e12\u0e19\u0e32 \u0e08.\u0e23\u0e30\u0e22\u0e2d\u0e07","opening_hours":{"open_now":true},"photos":[{"height":1108,"html_attributions":["<a href=\"https:\/\/maps.google.com\/maps\/contrib\/104379127933532129237\/photos\">\u0e23\u0e49\u0e32\u0e19\u0e04\u0e23\u0e31\u0e27\u0e1a\u0e49\u0e32\u0e19\u0e40\u0e23\u0e32 \u0e2d.\u0e19\u0e34\u0e04\u0e21\u0e1e\u0e31\u0e12\u0e19\u0e32 \u0e08.\u0e23\u0e30\u0e22\u0e2d\u0e07<\/a>"],"photo_reference":"CmRaAAAANrYUMK1JNbT7WRUR39oRxR14AspYLL3Whd2sYtM487sVguvcnlnmb8sJ_wD9MbGRrdgTugQdeykhboIRF-0evM1r4QNeECuS58PzeEgRliqClnEN3dvIzpJUAnK2Zp3KEhAvJx6T_6wiI988akvGjtG4GhTtI6rTWzHCmzy6zatWs5ADRvewbg","width":1478}],"place_id":"ChIJeRSDQY3hAjERnjHgQkwnKwI","plus_code":{"compound_code":"R8W9+CM Nong Bua, Ban Khai District, Rayong","global_code":"7P43R8W9+CM"},"rating":3.7,"reference":"ChIJeRSDQY3hAjERnjHgQkwnKwI","types":["restaurant","food","point_of_interest","establishment"],"user_ratings_total":3},{"formatted_address":"Thang Kwian, Klaeng District, Rayong 21110","geometry":{"location":{"lat":12.7826559,"lng":101.6568764},"viewport":{"northeast":{"lat":12.78382487989272,"lng":101.6584397798927},"southwest":{"lat":12.78112522010728,"lng":101.6557401201073}}},"icon":"https:\/\/maps.gstatic.com\/mapfiles\/place_api\/icons\/restaurant-71.png","id":"f711a46d6da5578c627a558c05df50861f676103","name":"\u0e23\u0e49\u0e32\u0e19\u0e2d\u0e32\u0e2b\u0e32\u0e23 \u0e1a\u0e49\u0e32\u0e19\u0e25\u0e38\u0e07\u0e04\u0e2d\u0e07","opening_hours":{"open_now":false},"photos":[{"height":1152,"html_attributions":["<a href=\"https:\/\/maps.google.com\/maps\/contrib\/100975077925541534818\/photos\">A.wichit jarangkul<\/a>"],"photo_reference":"CmRaAAAAeW8PTs-EsgD-PKlW5JSS-SwNlLV0WLU59jVDRc8EG72BJqFVrLAFGR6rr1P5tgxYhcoUzsM8nv7mcg_tcydTr1GTPoptJGjFNLNh0xliohMBXU6CpNHelSxCaF20J-DiEhBh8vYXHf5KPKQCJS2uL7HvGhQIJ40SNXJ2pAlNuOzjV12RxdQzSQ","width":2048}],"place_id":"ChIJdcNTQKkTAzERgVcBTLI84no","plus_code":{"compound_code":"QMM4+3Q Thang Kwian, Klaeng District, Rayong","global_code":"7P43QMM4+3Q"},"price_level":1,"rating":4.3,"reference":"ChIJdcNTQKkTAzERgVcBTLI84no","types":["restaurant","food","point_of_interest","establishment"],"user_ratings_total":89},{"formatted_address":"555\/555 Pluak Daeng, Rayong 21140","geometry":{"location":{"lat":12.9865462,"lng":101.2086113},"viewport":{"northeast":{"lat":12.98793132989272,"lng":101.2100288298927},"southwest":{"lat":12.98523167010728,"lng":101.2073291701073}}},"icon":"https:\/\/maps.gstatic.com\/mapfiles\/place_api\/icons\/restaurant-71.png","id":"5fa428a60fb5d8d6ccb6c455b2281029a52f2664","name":"\u0e1a\u0e49\u0e32\u0e19\u0e40\u0e25\u0e02\u0e17\u0e35\u0e48 5 coffee & restaurant","opening_hours":{"open_now":true},"photos":[{"height":2976,"html_attributions":["<a href=\"https:\/\/maps.google.com\/maps\/contrib\/110267178365653225382\/photos\">Uthai Poonsan<\/a>"],"photo_reference":"CmRaAAAAAGpd6Qn19dMjH2Ii_NC0uFf2vtvHeUA3BKyBAI_kXWnEhte75ydUamkcRo8bO2wjQOOlj4Pfnf4_yZbG7DcE7sVltD74lZmC5N9xgV9KxV2i-EhFyxOpuGauGVVrQnWGEhDfARmu0SDCxjZU7HR2dCisGhQmqav2O8I7q36O_ejJOT0QhbQ_PQ","width":2976}],"place_id":"ChIJkew6KELdAjERbRLRuMw8T0g","plus_code":{"compound_code":"X6P5+JC Pluak Daeng, Pluak Daeng District, Rayong","global_code":"7P43X6P5+JC"},"rating":4.2,"reference":"ChIJkew6KELdAjERbRLRuMw8T0g","types":["restaurant","food","point_of_interest","establishment"],"user_ratings_total":17},{"formatted_address":"278\/8 \u0e21.1 \u0e15.\u0e1a\u0e49\u0e32\u0e19\u0e04\u0e48\u0e32\u0e22 \u0e2d.\u0e1a\u0e49\u0e32\u0e19\u0e04\u0e48\u0e32\u0e22 Rayong","geometry":{"location":{"lat":12.7795848,"lng":101.294433},"viewport":{"northeast":{"lat":12.78096427989272,"lng":101.2956214298927},"southwest":{"lat":12.77826462010728,"lng":101.2929217701073}}},"icon":"https:\/\/maps.gstatic.com\/mapfiles\/place_api\/icons\/restaurant-71.png","id":"6e5f862a920a01dad1f04f61d64ca54727401ece","name":"\u0e1a\u0e49\u0e32\u0e19\u0e40\u0e01\u0e49\u0e32","opening_hours":{"open_now":false},"photos":[{"height":2252,"html_attributions":["<a href=\"https:\/\/maps.google.com\/maps\/contrib\/100805283642432524271\/photos\">A Google User<\/a>"],"photo_reference":"CmRaAAAAaJERv_3LZM_TOk9-_HYlbphsaoOSDhJgcC_4GhSfiEpi0cZsUTIG_NA0KHTE2bIIr4JPSU1Hft6BpDg7wSFhiZK0UHinc8kwMYQgJji7b64lu4IheoCMpASSxlaoysGDEhAQ6h4xT9g-fPwgmnm1QPpfGhTailPAInNOWlsV5DdHvI7y8E1-Tw","width":3264}],"place_id":"ChIJxZ9qXgLjAjERRbRxtutYUSc","plus_code":{"compound_code":"Q7HV+RQ Ban Khai, Ban Khai District, Rayong","global_code":"7P43Q7HV+RQ"},"rating":3.5,"reference":"ChIJxZ9qXgLjAjERRbRxtutYUSc","types":["restaurant","food","point_of_interest","establishment"],"user_ratings_total":11},{"formatted_address":"Tha Bunmi, Ko Chan District, Chon Buri 20240","geometry":{"location":{"lat":13.3764664,"lng":101.2765941},"viewport":{"northeast":{"lat":13.37782042989272,"lng":101.2779249798927},"southwest":{"lat":13.37512077010728,"lng":101.2752253201073}}},"icon":"https:\/\/maps.gstatic.com\/mapfiles\/place_api\/icons\/restaurant-71.png","id":"f1cd8ea85fff0288a8609f06d6bfb5a5d8b8d3c9","name":"Banmae Restaurant","opening_hours":{"open_now":true},"photos":[{"height":3024,"html_attributions":["<a href=\"https:\/\/maps.google.com\/maps\/contrib\/102358186779790613266\/photos\">dumrong trisirijalearn<\/a>"],"photo_reference":"CmRaAAAAq92-AuT5ze6eDhhSkANTKAgBZGQD13_RPtyoUWQiU8LzWKRhuOA0CrrrY6CUZD9jFn-XXp-wC_9cR4u99unyKUsZH82syrV8i_1hfgLoNmWaCG5TqYCp4QDC25rYKc1GEhDAZNprkAwZ3ff_1rL1oNNkGhR-U4L64ebR68r7V1HB877VEox8FA","width":4032}],"place_id":"ChIJ8Xw24d0rHTERYyM3APSVpFE","plus_code":{"compound_code":"97GG+HJ Tha Bunmi, Ko Chan District, Chon Buri","global_code":"7P5397GG+HJ"},"price_level":1,"rating":4.2,"reference":"ChIJ8Xw24d0rHTERYyM3APSVpFE","types":["restaurant","food","point_of_interest","establishment"],"user_ratings_total":239},{"formatted_address":"213 Chum Saeng, Wang Chan District, Rayong 21210","geometry":{"location":{"lat":12.9375726,"lng":101.5210454},"viewport":{"northeast":{"lat":12.93892022989272,"lng":101.5223876298927},"southwest":{"lat":12.93622057010728,"lng":101.5196879701073}}},"icon":"https:\/\/maps.gstatic.com\/mapfiles\/place_api\/icons\/restaurant-71.png","id":"9a624906409c0d39debbb44a09c21d3c65ffef13","name":"Chao Rai Restaurant","opening_hours":{"open_now":true},"photos":[{"height":405,"html_attributions":["<a href=\"https:\/\/maps.google.com\/maps\/contrib\/105025437336738228164\/photos\">A Google User<\/a>"],"photo_reference":"CmRZAAAAslFmZaCy2rM_bGn2SGqEpfXT5ETaoJ0Oz2nnPaqpd-MFGC0rKs_fIus0hD11ywv7HSrk8klSPI7rjfDe39RoFjtB-sdwdxc0Kns0ia19ueVSK0aADrK2A1hugx0sPxrGEhBgU5H2qnFEjyMX4gyCz-9PGhRiCF7V5ZqGWymse5ks1D_R2y9iug","width":720}],"place_id":"ChIJ7QTXUbQiAzERoBilYfgh75A","plus_code":{"compound_code":"WGQC+2C Chum Saeng, Wang Chan District, Rayong","global_code":"7P43WGQC+2C"},"price_level":2,"rating":4.1,"reference":"ChIJ7QTXUbQiAzERoBilYfgh75A","types":["restaurant","food","point_of_interest","establishment"],"user_ratings_total":304},{"formatted_address":"Ban Laeng, Mueang Rayong District, Rayong 21000","geometry":{"location":{"lat":12.6716482,"lng":101.3452701},"viewport":{"northeast":{"lat":12.67307677989272,"lng":101.3465266298927},"southwest":{"lat":12.67037712010728,"lng":101.3438269701073}}},"icon":"https:\/\/maps.gstatic.com\/mapfiles\/place_api\/icons\/restaurant-71.png","id":"e812ab94f554668f683c145461259946f5fbc0d5","name":"\u0e1a\u0e49\u0e32\u0e19\u0e15\u0e32\u0e2b\u0e25\u0e27\u0e19\u0e23\u0e35\u0e2a\u0e2d\u0e23\u0e4c\u0e17","photos":[{"height":4160,"html_attributions":["<a href=\"https:\/\/maps.google.com\/maps\/contrib\/104966828208129962344\/photos\">Nawa Thumying<\/a>"],"photo_reference":"CmRaAAAA-EQeoPAvv1wqQFX2ErrP7fXjRQ6uarPPQ3abXUAOxn81Yxfdux3V9Wz7TEA4tTOeMPZ4b-iYNYT0pCdLyQIq8BGx4l6fhInKgVSBM0S2rb2J4BfbPYwO3kdwz_CQ5XUIEhB0v8UhK8x5EbJ1JddLun7jGhRmlly1GkmCx5e__QgV5MNB3tQokw","width":3120}],"place_id":"ChIJJROlMAoCAzERNnZHT1HP_Mk","plus_code":{"compound_code":"M8CW+M4 Ban Laeng, Mueang Rayong District, Rayong","global_code":"7P43M8CW+M4"},"rating":4.1,"reference":"ChIJJROlMAoCAzERNnZHT1HP_Mk","types":["restaurant","food","point_of_interest","establishment"],"user_ratings_total":22},{"formatted_address":"Kong Din, Klaeng District, Rayong 21110","geometry":{"location":{"lat":12.7879955,"lng":101.7813753},"viewport":{"northeast":{"lat":12.78935812989272,"lng":101.7827260798927},"southwest":{"lat":12.78665847010728,"lng":101.7800264201073}}},"icon":"https:\/\/maps.gstatic.com\/mapfiles\/place_api\/icons\/restaurant-71.png","id":"afcdac39fcefc87a5acb91aa89f6fea79e7b5e0d","name":"\u0e02\u0e19\u0e21\u0e08\u0e35\u0e19 \u0e1a\u0e49\u0e32\u0e19\u0e0a\u0e19\u0e1a\u0e17","opening_hours":{"open_now":true},"photos":[{"height":3024,"html_attributions":["<a href=\"https:\/\/maps.google.com\/maps\/contrib\/103031270828807343331\/photos\">surapong boon<\/a>"],"photo_reference":"CmRaAAAAFzDxMBzgmw_oJsB_MeWFf3YDvGCoycFFL9k2cwV6uMnrk-kLPAFtD_aronl5nHGf-vsom880VCk_kL7HXlPxSn0hWa8P5S1_AfmlZVeK2hiwXg_TOfUIIhNAjA40HDYeEhBnfR4GAgaRGw5WxNYqnr0gGhR3n6dagrlAuIWAJThKSfM-N0y1Dw","width":4032}],"place_id":"ChIJmS3gGjxsAzERgp7XRDDvyEw","plus_code":{"compound_code":"QQQJ+5H Kong Din, Klaeng District, Rayong","global_code":"7P43QQQJ+5H"},"price_level":2,"rating":4.2,"reference":"ChIJmS3gGjxsAzERgp7XRDDvyEw","types":["restaurant","food","point_of_interest","establishment"],"user_ratings_total":118},{"formatted_address":"\u0e1a\u0e49\u0e32\u0e19\u0e40\u0e25\u0e02\u0e17\u0e35\u0e48 56\/1, Bang Phra, Si Racha District, Chon Buri 20110","geometry":{"location":{"lat":13.2139707,"lng":101.0043955},"viewport":{"northeast":{"lat":13.21532277989272,"lng":101.0057151798927},"southwest":{"lat":13.21262312010728,"lng":101.0030155201073}}},"icon":"https:\/\/maps.gstatic.com\/mapfiles\/place_api\/icons\/restaurant-71.png","id":"7c756c943d3cad00247e4fb291ca1face642b712","name":"Restaurant Near Me","opening_hours":{"open_now":true},"photos":[{"height":815,"html_attributions":["<a href=\"https:\/\/maps.google.com\/maps\/contrib\/109002811710986350571\/photos\">duck suankaew<\/a>"],"photo_reference":"CmRaAAAA36tfM5qtx6zrchpXdPAmHaKfKGrKb26F2_hj4kDGF_W2l9sY8W1C1L2HMkL-m0aVDM22JN0d2SXLpF98dX_RAymrw_sEaWMXNLRWPxO0p9NI-HOnNS_MjBizo5DDu4ruEhD1VXWde2zr8QlNj-nD-waTGhT_3h_zkNNrcFpOWDimnKBfocsTsg","width":1223}],"place_id":"ChIJd14ZcyDKAjERrZEt1rtxZSI","plus_code":{"compound_code":"6273+HQ Bang Phra, Si Racha District, Chon Buri","global_code":"7P536273+HQ"},"rating":4.3,"reference":"ChIJd14ZcyDKAjERrZEt1rtxZSI","types":["restaurant","lodging","food","point_of_interest","establishment"],"user_ratings_total":101},{"formatted_address":"Nong Lalok, Ban Khai District, Rayong 21180","geometry":{"location":{"lat":12.8262718,"lng":101.2108149},"viewport":{"northeast":{"lat":12.82757017989272,"lng":101.2121331298927},"southwest":{"lat":12.82487052010728,"lng":101.2094334701073}}},"icon":"https:\/\/maps.gstatic.com\/mapfiles\/place_api\/icons\/restaurant-71.png","id":"8d9296ecc47313abc1b602b372eb8e3c455d828b","name":"\u0e23\u0e49\u0e32\u0e19\u0e2d\u0e32\u0e2b\u0e32\u0e23\u0e1a\u0e49\u0e32\u0e19\u0e40\u0e08\u0e49\u0e19\u0e31\u0e19 \u0e2a\u0e32\u0e02\u0e322","opening_hours":{"open_now":true},"photos":[{"height":3096,"html_attributions":["<a href=\"https:\/\/maps.google.com\/maps\/contrib\/110364700078825355326\/photos\">Eve Atiphorn<\/a>"],"photo_reference":"CmRaAAAABh1oekG3mPK9dJcJx2S4BinSycTxLhH0_Mmu0W7-mp3W8Bv-6lTtWXh-BwYlUtRCtL1fhrfBq_yfPcoMTLu3rvW2F86peu3AbhjHKie60TZgCPzV3At-G1CWCMnv2PJhEhAWih0cCq1M-ozEYmt-SPMvGhTaSbqiYtxqzZJjLLCrOlwWk_Q-LQ","width":4128}],"place_id":"ChIJN94XszPkAjER_rV9deC94Mo","plus_code":{"compound_code":"R6G6+G8 Nong Lalok, Ban Khai District, Rayong","global_code":"7P43R6G6+G8"},"price_level":1,"rating":4.1,"reference":"ChIJN94XszPkAjER_rV9deC94Mo","types":["restaurant","food","point_of_interest","establishment"],"user_ratings_total":39},{"formatted_address":"40 Moo.6 Road, Tambon Ban Chang, Amphoe Ban Chang, Chang Wat Rayong 21130","geometry":{"location":{"lat":12.7384628,"lng":101.081795},"viewport":{"northeast":{"lat":12.73980512989272,"lng":101.0831257798927},"southwest":{"lat":12.73710547010728,"lng":101.0804261201073}}},"icon":"https:\/\/maps.gstatic.com\/mapfiles\/place_api\/icons\/restaurant-71.png","id":"aef67f02a9fd03b1fe1ad2a74129f76d0405b431","name":"\u0e23\u0e49\u0e32\u0e19\u0e2d\u0e32\u0e2b\u0e32\u0e23\u0e1a\u0e49\u0e32\u0e19\u0e09\u0e31\u0e19","opening_hours":{"open_now":false},"photos":[{"height":3024,"html_attributions":["<a href=\"https:\/\/maps.google.com\/maps\/contrib\/105782880733385688180\/photos\">Thawaroj Mongkaew<\/a>"],"photo_reference":"CmRaAAAAvyPZSFysX-I-q6l-d1PNv43sQPxHW99Pb1Wr3SUMjPYf_SYqitWcQGZeh-U_waiNRbT_c1u_jU3AUw871MZPQbIVRKXBAe2NhIOcqybo-vedfXWjtRIMWttQbFVIGXv5EhAQKbZQko_j_qBtTtRvPXjxGhTXLNbo6UD0E77MPEt5g4otUVAtyw","width":4032}],"place_id":"ChIJk2U9A_LxAjERCFep3did7uk","plus_code":{"compound_code":"P3QJ+9P Ban Chang, Ban Chang District, Rayong","global_code":"7P43P3QJ+9P"},"price_level":2,"rating":4.3,"reference":"ChIJk2U9A_LxAjERCFep3did7uk","types":["restaurant","food","point_of_interest","establishment"],"user_ratings_total":78},{"formatted_address":"3139, Choeng Noen Sub-district, Amphoe Mueang Rayong, Chang Wat Rayong 21000","geometry":{"location":{"lat":12.6873834,"lng":101.3023853},"viewport":{"northeast":{"lat":12.68877277989272,"lng":101.3036837798927},"southwest":{"lat":12.68607312010728,"lng":101.3009841201073}}},"icon":"https:\/\/maps.gstatic.com\/mapfiles\/place_api\/icons\/restaurant-71.png","id":"2fb434fddcafbd62ee43ccfde2bc6fa9bd3932e7","name":"\u0e42\u0e08\u0e4a\u0e01\u0e1a\u0e49\u0e32\u0e19\u0e41\u0e25\u0e0724@\u0e01\u0e30\u0e40\u0e1e\u0e23\u0e32\u0e16\u0e32\u0e14","opening_hours":{"open_now":true},"photos":[{"height":3024,"html_attributions":["<a href=\"https:\/\/maps.google.com\/maps\/contrib\/115284022194902097837\/photos\">\u0e2d\u0e32\u0e17\u0e34\u0e15\u0e22\u0e4c \u0e20\u0e39\u0e40\u0e14\u0e0a\u0e14\u0e35<\/a>"],"photo_reference":"CmRaAAAAio4S5ipnRdxx4t1MmYmbJ9WAsOd88BTw1NLnk5C5xAVd77c30lqB5lp99sG2E6wFIJO7d6Sue-3c5LzxwOSOJEFAQH6Rj5JBmwngcHCSp9BgkdmqlexzL8ORZXzZxEW5EhC1GKILdbYHBeSMtMNubZEFGhQgRAVJNjJvsAnWShvteb7XOoxW_Q","width":4032}],"place_id":"ChIJ33ezObL9AjERBOsCKWzkHbo","plus_code":{"compound_code":"M8P2+XX Rayong, Mueang Rayong District, Rayong","global_code":"7P43M8P2+XX"},"price_level":1,"rating":4,"reference":"ChIJ33ezObL9AjERBOsCKWzkHbo","types":["restaurant","food","point_of_interest","establishment"],"user_ratings_total":65},{"formatted_address":"Choeng Noen Sub-district, Mueang Rayong District, Rayong 21000","geometry":{"location":{"lat":12.6730273,"lng":101.2945381},"viewport":{"northeast":{"lat":12.67437977989272,"lng":101.2958714798927},"southwest":{"lat":12.67168012010728,"lng":101.2931718201073}}},"icon":"https:\/\/maps.gstatic.com\/mapfiles\/place_api\/icons\/restaurant-71.png","id":"e2ea3b9984480a91f20fbc99750246b345a06df0","name":"\u0e04\u0e23\u0e31\u0e27\u0e1a\u0e49\u0e32\u0e19\u0e2a\u0e27\u0e19 \u0e16\u0e19\u0e19 \u0e042. \u0e2d.\u0e40\u0e21\u0e37\u0e2d\u0e07\u0e23\u0e30\u0e22\u0e2d\u0e07","opening_hours":{"open_now":false},"photos":[{"height":4160,"html_attributions":["<a href=\"https:\/\/maps.google.com\/maps\/contrib\/111103644972686933985\/photos\">A Google User<\/a>"],"photo_reference":"CmRaAAAAnvFUFukYpFGauWz82D03myDzEe55HN3kFsLl_k6izK30asOZD-zvehVGhQzb7HbqqFxDyAXmRrjgFle8wuEoedxwsa-Y-2pbi3YA4t6jl9LZkLxd2C9d1CKCcLxjPK0nEhAvA4UGHWflPNQMeud-K_KoGhTe59pqkVm_AR5RQfgI8otv96YtMw","width":3120}],"place_id":"ChIJ60AteTT8AjERZnX_sZo09oA","plus_code":{"compound_code":"M7FV+6R Rayong, Mueang Rayong District, Rayong","global_code":"7P43M7FV+6R"},"rating":3.9,"reference":"ChIJ60AteTT8AjERZnX_sZo09oA","types":["restaurant","food","point_of_interest","establishment"],"user_ratings_total":23},{"formatted_address":"\u0e2b\u0e21\u0e39\u0e48\u0e1a\u0e49\u0e32\u0e19 \u0e23\u0e34\u0e21\u0e04\u0e25\u0e2d\u0e07\u0e43\u0e19\u0e1d\u0e31\u0e19\u0e2a\u0e2d\u0e07 122 \u0e0b\u0e2d\u0e22 \u0e2a\u0e2d\u0e07\u0e1e\u0e35\u0e48\u0e19\u0e49\u0e2d\u0e07 \u0e16\u0e19\u0e19 \u0e2a\u0e38\u0e02\u0e38\u0e21\u0e27\u0e34\u0e17 Tambon Choeng Noen, \u0e2d\u0e33\u0e40\u0e20\u0e2d \u0e40\u0e21\u0e37\u0e2d\u0e07\u0e23\u0e30\u0e22\u0e2d\u0e07 Chang Wat Rayong 21000","geometry":{"location":{"lat":12.6693516,"lng":101.288292},"viewport":{"northeast":{"lat":12.67073342989272,"lng":101.2896744798927},"southwest":{"lat":12.66803377010728,"lng":101.2869748201073}}},"icon":"https:\/\/maps.gstatic.com\/mapfiles\/place_api\/icons\/restaurant-71.png","id":"4a770d060acbb4150818920596a39b27c9b4b506","name":"\u0e23\u0e49\u0e32\u0e19\u0e2d\u0e32\u0e2b\u0e32\u0e23\u0e1a\u0e49\u0e32\u0e19\u0e04\u0e38\u0e13\u0e0a\u0e32\u0e22 \u0e2a\u0e2d\u0e07\u0e1e\u0e35\u0e48\u0e19\u0e49\u0e2d\u0e07 \u0e23\u0e30\u0e22\u0e2d\u0e07","opening_hours":{"open_now":false},"photos":[{"height":4032,"html_attributions":["<a href=\"https:\/\/maps.google.com\/maps\/contrib\/111319803450943823889\/photos\">Janya T<\/a>"],"photo_reference":"CmRaAAAAGJuPEE0Rd24ogcv5g0PRgJUTFlM0ERjaFBzH_weESlcaAN4Ht2mzMhsH9a8tnXpspCGFBwyJkjiDxkoCFDIA3UGYJB63D_xefX-J1t32TeuPyyqI38OJBcl0RjnfhJmvEhAMz2DhadZclm9NSPamGAmQGhTXHmb5WMvI3QyBBMUNmNJAI5hNwg","width":3024}],"place_id":"ChIJ4_UJRTD8AjERpzffhj-2BHQ","plus_code":{"compound_code":"M79Q+P8 Rayong, Mueang Rayong District, Rayong","global_code":"7P43M79Q+P8"},"price_level":2,"rating":4.6,"reference":"ChIJ4_UJRTD8AjERpzffhj-2BHQ","types":["restaurant","food","point_of_interest","establishment"],"user_ratings_total":99},{"formatted_address":"\u0e16\u0e19\u0e19 \u0e01\u0e23\u0e2d\u0e01\u0e43\u0e19 Tambon Thapma, Amphoe Mueang Rayong, Chang Wat Rayong 21000","geometry":{"location":{"lat":12.7177316,"lng":101.2372881},"viewport":{"northeast":{"lat":12.71911042989272,"lng":101.2386505798927},"southwest":{"lat":12.71641077010728,"lng":101.2359509201073}}},"icon":"https:\/\/maps.gstatic.com\/mapfiles\/place_api\/icons\/restaurant-71.png","id":"ebc6471290729401590262a01254c446696be7f4","name":"\u0e04\u0e23\u0e31\u0e27\u0e1a\u0e49\u0e32\u0e19\u0e19\u0e38\u0e48\u0e19 Byenior AMT","photos":[{"height":2322,"html_attributions":["<a href=\"https:\/\/maps.google.com\/maps\/contrib\/103664380046289618770\/photos\">A Google User<\/a>"],"photo_reference":"CmRaAAAAmra-dF9Ok5Hj8mAPGWu3pKt5lICtiy0594eZobSZeTj1oIHTNTUDQnQuadsKTyZp6V-2YcTMDlJaMBbDs6guaSXNcKsJogZgpn0TCPxqy-TRk-x4XzaaudeYC5yshCfkEhCU8w1SAkW4iFeSYD9hxu-MGhSZKafJ1jQSLihFqExG13wwkjXgpQ","width":4128}],"place_id":"ChIJW1kw9m77AjERWz4CaSdS6ws","plus_code":{"compound_code":"P69P+3W Thap Ma, Mueang Rayong District, Rayong","global_code":"7P43P69P+3W"},"rating":4.3,"reference":"ChIJW1kw9m77AjERWz4CaSdS6ws","types":["restaurant","food","point_of_interest","establishment"],"user_ratings_total":4},{"formatted_address":"Choeng Noen Sub-district, Mueang Rayong District, Rayong 21000","geometry":{"location":{"lat":12.6967219,"lng":101.2898747},"viewport":{"northeast":{"lat":12.69804087989272,"lng":101.2912091298927},"southwest":{"lat":12.69534122010728,"lng":101.2885094701073}}},"icon":"https:\/\/maps.gstatic.com\/mapfiles\/place_api\/icons\/restaurant-71.png","id":"f9271178daa604c693f20e55a1fdee95a56b0190","name":"\u0e23\u0e49\u0e32\u0e19\u0e2d\u0e34\u0e48\u0e21\u0e2a\u0e1a\u0e32\u0e22\u0e2b\u0e21\u0e39\u0e01\u0e30\u0e17\u0e30\u0e1a\u0e49\u0e32\u0e19\u0e14\u0e2d\u0e19","opening_hours":{"open_now":false},"photos":[{"height":2560,"html_attributions":["<a href=\"https:\/\/maps.google.com\/maps\/contrib\/114451658083263106377\/photos\">A Google User<\/a>"],"photo_reference":"CmRaAAAAz3M4wM6GYesoEt3TiW9xvPq6Nzz_uKqcnkW_0iMCCl5RhMHPScJqa605xxVp1fQ0srWYtqKTCEaRS3HXRCg8tctCJNO_RhY21hdNUABoy1OCH4ldyXdGuoWnFTStSw74EhBAKtdYMmPs5cdUq37UhQFzGhThp5-I5PFunBwMfqlmIU7WU7QUig","width":1920}],"place_id":"ChIJ1Wmk3Fb8AjER-jlimsK-hAs","plus_code":{"compound_code":"M7WQ+MW Rayong, Mueang Rayong District, Rayong","global_code":"7P43M7WQ+MW"},"price_level":1,"rating":4.1,"reference":"ChIJ1Wmk3Fb8AjER-jlimsK-hAs","types":["restaurant","food","point_of_interest","establishment"],"user_ratings_total":68}],"%E0%B9%84%E0%B8%A1%E0%B9%89":[{"formatted_address":"Chum Saeng, Wang Chan District, Rayong 21210","geometry":{"location":{"lat":12.9304599,"lng":101.5102172},"viewport":{"northeast":{"lat":12.93179877989272,"lng":101.5115757298927},"southwest":{"lat":12.92909912010728,"lng":101.5088760701073}}},"icon":"https:\/\/maps.gstatic.com\/mapfiles\/place_api\/icons\/restaurant-71.png","id":"70189dd9efc61a9748137228d6f3b1270b8c1d6f","name":"To Mai Restaurant","photos":[{"height":3264,"html_attributions":["<a href=\"https:\/\/maps.google.com\/maps\/contrib\/114013393527634820323\/photos\">Rene Vogt<\/a>"],"photo_reference":"CmRaAAAA4UvmqkVqlIJH-pWFd3Nb8RUzC7rePegAiw_vcIm4-5PQmgiHr1wRdNRLQKJBRcGALFf6RpI7JKavdkbTQJ3VWaJAYQMDBqCDSZYxiuoYKej4NjQZb5v1jE4joF_YmOH1EhAFL-pePHprbN62wu4njp6fGhTwJUMcRS287HwJnUwp8_IOfrba8g","width":2448}],"place_id":"ChIJnbv4I7siAzERT6ixuyq38t4","plus_code":{"compound_code":"WGJ6+53 Chum Saeng, Wang Chan District, Rayong","global_code":"7P43WGJ6+53"},"rating":4,"reference":"ChIJnbv4I7siAzERT6ixuyq38t4","types":["restaurant","food","point_of_interest","establishment"],"user_ratings_total":5},{"formatted_address":"3471, Tambon Chum Saeng, Amphoe Wang Chan, Chang Wat Rayong 21210","geometry":{"location":{"lat":12.9303083,"lng":101.5101535},"viewport":{"northeast":{"lat":12.93169777989272,"lng":101.5114720798927},"southwest":{"lat":12.92899812010728,"lng":101.5087724201073}}},"icon":"https:\/\/maps.gstatic.com\/mapfiles\/place_api\/icons\/restaurant-71.png","id":"c650c82dd2157e190ce66edbea6de3d73236e418","name":"Thomai Kitchen (\u0e04\u0e23\u0e31\u0e27\u0e42\u0e15\u0e4a\u0e30\u0e44\u0e21\u0e49)","photos":[{"height":2160,"html_attributions":["<a href=\"https:\/\/maps.google.com\/maps\/contrib\/103967332846730084900\/photos\">Dan-Erik Lindberg<\/a>"],"photo_reference":"CmRZAAAAWbedstNt9EeT5hbjJxeghO0USZW2Dw3g-GingV6jrPwBv1-v1Lmzw7pG_7l3XL7bQLB_ViT6ami0jsGgaEnvA4QD3tYnWTGY41WLSrlZCIsu05dzZ-li7XgLSPOOoEh2EhAUtUejX-MrcttiAUSEKSLZGhS3ZpjHd1xVQzGwcHyq0l_RQKPGcg","width":3840}],"place_id":"ChIJ6eNJJLsiAzER42LR34tgs2U","plus_code":{"compound_code":"WGJ6+43 Chum Saeng, Wang Chan District, Rayong","global_code":"7P43WGJ6+43"},"rating":5,"reference":"ChIJ6eNJJLsiAzER42LR34tgs2U","types":["restaurant","food","point_of_interest","establishment"],"user_ratings_total":1},{"formatted_address":"Krasae Bon, Klaeng District, Rayong 21110","geometry":{"location":{"lat":12.941557,"lng":101.6063747},"viewport":{"northeast":{"lat":12.94288492989272,"lng":101.6078111798927},"southwest":{"lat":12.94018527010728,"lng":101.6051115201073}}},"icon":"https:\/\/maps.gstatic.com\/mapfiles\/place_api\/icons\/restaurant-71.png","id":"ad8c0ca9e544267d73dd2653544114716f3c1a2b","name":"\u0e23\u0e49\u0e32\u0e19\u0e02\u0e49\u0e32\u0e27\u0e21\u0e31\u0e19\u0e44\u0e01\u0e48\u0e18\u0e19\u0e32\u0e04\u0e32\u0e23\u0e2b\u0e21\u0e39\u0e48\u0e1a\u0e49\u0e32\u0e19\u0e04\u0e25\u0e2d\u0e07\u0e1b\u0e48\u0e32\u0e44\u0e21\u0e49","opening_hours":{"open_now":true},"photos":[{"height":3264,"html_attributions":["<a href=\"https:\/\/maps.google.com\/maps\/contrib\/101385670394993940342\/photos\">wichai laupacha<\/a>"],"photo_reference":"CmRaAAAAxbher3MUdLFu_slD8_Bq85_WN12VVfULjs0L7N1g24M-4UEQl-gmpTA8DJjFF4rMohFba00zS_74rs3sXwF_CP5I_VTGiLGM49pIciBACR8kMf5Khzj0LLrduIo3aD-1EhCAULNYmRn5Pjy-WFQyIjW9GhQBEo2pWwC0cziDY3CreBZYkiFW9A","width":2448}],"place_id":"ChIJp2z-mtw9AzERcCfzyhXo_E8","plus_code":{"compound_code":"WJR4+JG Krasae Bon, Klaeng District, Rayong","global_code":"7P43WJR4+JG"},"rating":4,"reference":"ChIJp2z-mtw9AzERcCfzyhXo_E8","types":["restaurant","food","point_of_interest","establishment"],"user_ratings_total":4},{"formatted_address":"240 \u0e21 .17 \u0e44\u0e23\u0e48\u0e19\u0e49\u0e2d\u0e22 \u0e40\u0e21\u0e37\u0e2d\u0e07 \u0e2d\u0e38\u0e1a\u0e25\u0e23\u0e32\u0e0a\u0e18\u0e32\u0e19\u0e35 34000","geometry":{"location":{"lat":13.151135,"lng":101.490104},"viewport":{"northeast":{"lat":13.1554307,"lng":101.4913127298927},"southwest":{"lat":13.1497031,"lng":101.4886130701073}}},"icon":"https:\/\/maps.gstatic.com\/mapfiles\/place_api\/icons\/restaurant-71.png","id":"00ee1cf87e2ed0f0bd2189d3c262ea2228053542","name":"\u0e23\u0e49\u0e32\u0e19\u0e40\u0e2e\u0e37\u0e2d\u0e19\u0e44\u0e21\u0e49\u0e2a\u0e40\u0e15\u0e47\u0e01\u0e2d\u0e38\u0e1a\u0e25\u0e23\u0e32\u0e0a\u0e18\u0e32\u0e19\u0e35","opening_hours":{"open_now":true},"photos":[{"height":2047,"html_attributions":["<a href=\"https:\/\/maps.google.com\/maps\/contrib\/101021592541786941787\/photos\">\u0e23\u0e49\u0e32\u0e19\u0e40\u0e2e\u0e37\u0e2d\u0e19\u0e44\u0e21\u0e49\u0e2a\u0e40\u0e15\u0e47\u0e01\u0e2d\u0e38\u0e1a\u0e25\u0e23\u0e32\u0e0a\u0e18\u0e32\u0e19\u0e35<\/a>"],"photo_reference":"CmRaAAAAW0xahTfxaXb8RfO6tVzY94bnuR7NTY8hzo839YMISy9r47Yt8MXDoJ2dxzQrYf_285Ijl9AZJ5_YIwxrxvpYFUqVYPYTISUj5ZB_PQz5TqwUrFP49o16HekeOCotVvZnEhArjsv6pEYxaLgmi1qI1JShGhROm-HosIUrIqKzyZ9eaXRVIUENow","width":2048}],"place_id":"ChIJifkUA1IuAzERqNnfU37kvcA","plus_code":{"compound_code":"5F2R+F2 Khlong Phlu, Nong Yai District, Chon Buri","global_code":"7P535F2R+F2"},"rating":0,"reference":"ChIJifkUA1IuAzERqNnfU37kvcA","types":["restaurant","food","point_of_interest","establishment"],"user_ratings_total":0},{"formatted_address":"Sunthon Wohan 1, Tambon Thang Kwian, Amphoe Klaeng, Chang Wat Rayong 21110","geometry":{"location":{"lat":12.7792717,"lng":101.6557948},"viewport":{"northeast":{"lat":12.78059557989272,"lng":101.6571127298927},"southwest":{"lat":12.77789592010728,"lng":101.6544130701073}}},"icon":"https:\/\/maps.gstatic.com\/mapfiles\/place_api\/icons\/restaurant-71.png","id":"d1adf794e006fd3cd61847d3968149ba656462aa","name":"\u0e23\u0e49\u0e32\u0e19\u0e23\u0e48\u0e21\u0e44\u0e21\u0e49\u0e0a\u0e32\u0e22\u0e04\u0e25\u0e2d\u0e07","photos":[{"height":2048,"html_attributions":["<a href=\"https:\/\/maps.google.com\/maps\/contrib\/110293074798270467486\/photos\">A Google User<\/a>"],"photo_reference":"CmRaAAAAll3CpdJPX3dP7jPWPJZ775jLAnie-wzCfi1NrRx7xz9xchB5T2D9bXCycmF4xA6oA-N6hXKK6I1K35XsNRQr4Y5eyOW5SZA66a1YCi6eiO2QoiR55xX2x3p3AQLaDyN2EhA70a7yucRfkdwdVzKNdM20GhQqGYc8ZSCyAlMxQX_MBPbZNdLiKQ","width":1536}],"place_id":"ChIJnyu1xa0TAzERAhNWgiS2bAY","plus_code":{"compound_code":"QMH4+P8 Thang Kwian, Klaeng District, Rayong","global_code":"7P43QMH4+P8"},"rating":4.2,"reference":"ChIJnyu1xa0TAzERAhNWgiS2bAY","types":["restaurant","food","point_of_interest","establishment"],"user_ratings_total":5},{"formatted_address":"\u0e17\u0e32\u0e07\u0e2b\u0e25\u0e27\u0e07 \u0e2b\u0e21\u0e32\u0e22\u0e40\u0e25\u0e02 344 \u0e21 .2 \u0e15 \u0e1e \u0e25\u0e07 \u0e15\u0e32 \u0e40\u0e2d\u0e35\u0e48\u0e22\u0e21 \u0e2d \u0e27\u0e31 \u0e07\u0e31\u0e19 \u0e17 \u0e23\u0e4c \u0e08, Rayong","geometry":{"location":{"lat":12.9220307,"lng":101.5289407},"viewport":{"northeast":{"lat":12.92330162989272,"lng":101.5303073298927},"southwest":{"lat":12.92060197010727,"lng":101.5276076701073}}},"icon":"https:\/\/maps.gstatic.com\/mapfiles\/place_api\/icons\/restaurant-71.png","id":"22cfc4ddb0c64578f3e6d1307af2f11df7f33d43","name":"\u0e23\u0e49\u0e32\u0e19\u0e1a\u0e49\u0e32\u0e19\u0e15\u0e49\u0e19\u0e44\u0e21\u0e49","opening_hours":{"open_now":true},"photos":[{"height":2268,"html_attributions":["<a href=\"https:\/\/maps.google.com\/maps\/contrib\/102593916395914695272\/photos\">Tanatpol C<\/a>"],"photo_reference":"CmRaAAAAMT37CebQo4EjRTS8c6BHXrIp3pM70T2-M7bTlT-AUDc5WUR_cios9Rb0YrqasBufAawFhu5u4gRpgVfpxOt2KmBC3YXoA3LNVZpbbjLexcCy9DLzfwTAD27V7s56gzEgEhBBXSDcuALdiz4PsRErtQ9wGhQmhIcGUvUtO7DYRo52e17D2hV0xg","width":4032}],"place_id":"ChIJRTcFR8kiAzERx0cJ_wrAIAs","plus_code":{"compound_code":"WGCH+RH Plong Ta Iam, Wang Chan District, Rayong","global_code":"7P43WGCH+RH"},"rating":3.9,"reference":"ChIJRTcFR8kiAzERx0cJ_wrAIAs","types":["restaurant","food","point_of_interest","establishment"],"user_ratings_total":68},{"formatted_address":"273\/8 Sukhumvit Rd, Noenpra, Muang, Chang Wat Rayong 21000","geometry":{"location":{"lat":12.6825322,"lng":101.2618656},"viewport":{"northeast":{"lat":12.68394737989272,"lng":101.2632212298927},"southwest":{"lat":12.68124772010728,"lng":101.2605215701073}}},"icon":"https:\/\/maps.gstatic.com\/mapfiles\/place_api\/icons\/restaurant-71.png","id":"07f8390365d99d1de276d75c96d79f5d5126a0af","name":"\u0e23\u0e49\u0e32\u0e19\u0e2d\u0e32\u0e2b\u0e32\u0e23\u0e23\u0e48\u0e21\u0e44\u0e21\u0e49 (Rommai Restaurant)","opening_hours":{"open_now":true},"photos":[{"height":4032,"html_attributions":["<a href=\"https:\/\/maps.google.com\/maps\/contrib\/105839953107710976048\/photos\">Ao HIRO<\/a>"],"photo_reference":"CmRaAAAA2ZIHEmeE0lVkRgaA14MHx4h0N-5OecUIHVVVjPDw45cqtVlJcsWtfxtwpCIKYtvL5bztt0EGAdyqWrMt0kjpAQQYXTtm4YayD1SpEHnwfUC-zVagNo6h_Vlmuco2XQ70EhCuX84FP3sPj_xx_vZjlJeoGhT76_O1p4prILbv5-m71ed_Yh6l2A","width":3024}],"place_id":"ChIJldQU9nL8AjERM1pO4HSB0Yw","plus_code":{"compound_code":"M7M6+2P Rayong, Mueang Rayong District, Rayong","global_code":"7P43M7M6+2P"},"price_level":1,"rating":4.2,"reference":"ChIJldQU9nL8AjERM1pO4HSB0Yw","types":["restaurant","food","point_of_interest","establishment"],"user_ratings_total":179},{"formatted_address":"271\/124-125 \u0e15\u0e33\u0e1a\u0e25 \u0e1a\u0e48\u0e2d\u0e27\u0e34\u0e19 Tambon Bo Win, Amphoe Si Racha, Chang Wat Chon Buri 20230","geometry":{"location":{"lat":13.0409603,"lng":101.08078},"viewport":{"northeast":{"lat":13.04216102989272,"lng":101.0820230298927},"southwest":{"lat":13.03946137010728,"lng":101.0793233701073}}},"icon":"https:\/\/maps.gstatic.com\/mapfiles\/place_api\/icons\/restaurant-71.png","id":"9178d605f48ade6f0ad6fb6d2647270412c8cffc","name":"\u0e2a\u0e27\u0e19\u0e2d\u0e32\u0e2b\u0e32\u0e23\u0e23\u0e48\u0e21\u0e44\u0e21\u0e49","opening_hours":{"open_now":false},"photos":[{"height":1536,"html_attributions":["<a href=\"https:\/\/maps.google.com\/maps\/contrib\/100211306269872792169\/photos\">\u0e18\u0e31\u0e0d\u0e0a\u0e19\u0e01 \u0e23\u0e31\u0e15\u0e19\u0e28\u0e23\u0e35<\/a>"],"photo_reference":"CmRaAAAAVaMZyFvDN5MfPrK21OuX31wBhmFpYD3Ny8ElrCUiKmqogMAlbLuusl6I1dOqLMJgZm8LkoQ5VxIl0tvnC4TUWkgcDRuobUx6WRmVmd1DM99HqeGdE4T2FdXXbD-r1X6YEhCdGJ14QST2gF1-im9PzqDGGhQKxv41MfsMHUeSp8pFUn-j6kUhSA","width":2048}],"place_id":"ChIJLXTo7RrEAjERATOH5oRvKdo","plus_code":{"compound_code":"23RJ+98 Bo Win, Si Racha District, Chon Buri","global_code":"7P5323RJ+98"},"price_level":2,"rating":3.7,"reference":"ChIJLXTo7RrEAjERATOH5oRvKdo","types":["restaurant","food","point_of_interest","establishment"],"user_ratings_total":52},{"formatted_address":"19-21 Thanon Phanit, Tambon Na Muang, Amphoe Mueang Chachoengsao, Chang Wat Chachoengsao 24000","geometry":{"location":{"lat":13.690414,"lng":101.082081},"viewport":{"northeast":{"lat":13.69194807989272,"lng":101.0834392798927},"southwest":{"lat":13.68924842010728,"lng":101.0807396201073}}},"icon":"https:\/\/maps.gstatic.com\/mapfiles\/place_api\/icons\/restaurant-71.png","id":"1170eedc379dc0cd3d2642c2c04753edd61ba6c0","name":"Waterfront House","opening_hours":{"open_now":true},"photos":[{"height":2016,"html_attributions":["<a href=\"https:\/\/maps.google.com\/maps\/contrib\/114247300342791823522\/photos\">\u0e2a\u0e38\u0e40\u0e21\u0e18 \u0e1e\u0e27\u0e07\u0e21\u0e32\u0e25\u0e31\u0e22<\/a>"],"photo_reference":"CmRaAAAAuoyyhi2AwAuSNEf2Kyj9NWXXVJ_uEraW7ytKkLKF_fY2-cC2nbjhNVqbO3Nr-f4rxblNRc-2yXupOn2vJ_3of30w6prb9Wo5bsUrW7aQ0HGWOqwZS1xBJrKz9WK_3ZxvEhC_qjhpGuDo_5UoX2WlVHBOGhSra6N0EYZqfl4VIRuqg-I3MgIhzw","width":3584}],"place_id":"ChIJ8wxuh3IWHTER0bZtUArKMDE","plus_code":{"compound_code":"M3RJ+5R Na Mueang, Mueang Chachoengsao District, Chachoengsao","global_code":"7P53M3RJ+5R"},"price_level":2,"rating":4.2,"reference":"ChIJ8wxuh3IWHTER0bZtUArKMDE","types":["restaurant","food","point_of_interest","establishment"],"user_ratings_total":652},{"formatted_address":"158\/4 \u0e16\u0e19\u0e19 \u0e23\u0e32\u0e29\u0e0e\u0e4c\u0e1a\u0e33\u0e23\u0e38\u0e07 Tambon Noen Phra, Amphoe Mueang Rayong, Chang Wat Rayong 21000","geometry":{"location":{"lat":12.6796738,"lng":101.2523943},"viewport":{"northeast":{"lat":12.68109802989273,"lng":101.2537272298927},"southwest":{"lat":12.67839837010728,"lng":101.2510275701073}}},"icon":"https:\/\/maps.gstatic.com\/mapfiles\/place_api\/icons\/restaurant-71.png","id":"94ff65744b351da2971c652df650552ec236c28c","name":"\u0e44\u0e21\u0e49\u0e01\u0e30\u0e19\u0e49\u0e33","photos":[{"height":3024,"html_attributions":["<a href=\"https:\/\/maps.google.com\/maps\/contrib\/105839953107710976048\/photos\">Ao HIRO<\/a>"],"photo_reference":"CmRaAAAAe5Dx5zBfNNS1itYZ-b0V-z5o9HX8t2BtWH_cTGjjfR5NBTen3L48KP_9tgcbriZk7htiuTv7Cs5jtDo4CVKHbVjb3nZ1Ijo3KACJzU954j-rctahuPWhmmUsCqKNFR_lEhB9VwSn7H9gz0kDZNdkndqCGhQt6CD8mugMZI6BNwv3qXFw0xnvUA","width":4032}],"place_id":"ChIJu1e8qQr8AjER93dr3mOhfN0","plus_code":{"compound_code":"M7H2+VX Rayong, Mueang Rayong District, Rayong","global_code":"7P43M7H2+VX"},"rating":3.8,"reference":"ChIJu1e8qQr8AjER93dr3mOhfN0","types":["restaurant","food","point_of_interest","establishment"],"user_ratings_total":31},{"formatted_address":"Unnamed Road,, Bo Win, Si Racha District, Chon Buri 20230","geometry":{"location":{"lat":13.0290573,"lng":101.0671145},"viewport":{"northeast":{"lat":13.03036252989272,"lng":101.0684667798927},"southwest":{"lat":13.02766287010728,"lng":101.0657671201073}}},"icon":"https:\/\/maps.gstatic.com\/mapfiles\/place_api\/icons\/restaurant-71.png","id":"c9440f937b79a7c46d84b3c3e5ac0da6fb859d6c","name":"\u0e04\u0e23\u0e31\u0e27\u0e44\u0e21\u0e49\u0e2b\u0e2d\u0e21-Halal Food","opening_hours":{"open_now":true},"photos":[{"height":3120,"html_attributions":["<a href=\"https:\/\/maps.google.com\/maps\/contrib\/100786722767959306988\/photos\">A Google User<\/a>"],"photo_reference":"CmRZAAAAgYvp174ZIt3OjCuBWQaZlTCXlw7y9fCrvKLEfqMALXLXvds_ZOD48l6xM1gmhWcnWbrveOVen0IE2gHMQzn9NEc1aoKUg6xNeYZEd42KGBvx3bfPaUGqEcQ6y2tVZMviEhAbUmemDdlsarrAQl2O1AF0GhTYOUjdjeEwhokRyiJuFlHLhVORbQ","width":4160}],"place_id":"ChIJVUodOavGAjER1GpmKZGfvrA","plus_code":{"compound_code":"23H8+JR Bo Win, Si Racha District, Chon Buri","global_code":"7P5323H8+JR"},"rating":4.2,"reference":"ChIJVUodOavGAjER1GpmKZGfvrA","types":["restaurant","food","point_of_interest","establishment"],"user_ratings_total":36},{"formatted_address":"141 \u0e2b\u0e21\u0e39\u0e482 Tambon Phe, Amphoe Mueang Rayong, Chang Wat Rayong 21160","geometry":{"location":{"lat":12.6137577,"lng":101.4231207},"viewport":{"northeast":{"lat":12.61519037989272,"lng":101.4242276798927},"southwest":{"lat":12.61249072010728,"lng":101.4215280201073}}},"icon":"https:\/\/maps.gstatic.com\/mapfiles\/place_api\/icons\/restaurant-71.png","id":"bc6524cdfb77d813fb2abada802a0c6d847fb86f","name":"Baanrabeangmai","opening_hours":{"open_now":true},"photos":[{"height":1836,"html_attributions":["<a href=\"https:\/\/maps.google.com\/maps\/contrib\/101768579562978596041\/photos\">Jaturong Jitrabob<\/a>"],"photo_reference":"CmRaAAAAKaY8_j2rGWe_D4vwCxBYKhDY-EDT-5M_GloJbOxeEreJb94qz6wQ4ZTsarIN9ceZaWQH5xdh0muXBROwFsvztBH2ydMkrGxILuqvZBu6i4iFBZw07qudGyFr0fnaKA2mEhAl5Y5s-iFzc_IbW6FGhIYCGhTSbCPcAIyaMNmhm6uWNyUhRecUPw","width":3264}],"place_id":"ChIJaSZ6gi8BAzERUtPfr-g7jig","plus_code":{"compound_code":"JC7F+G6 Phe, Mueang Rayong District, Rayong","global_code":"7P43JC7F+G6"},"rating":3.6,"reference":"ChIJaSZ6gi8BAzERUtPfr-g7jig","types":["restaurant","food","point_of_interest","establishment"],"user_ratings_total":324},{"formatted_address":"142 11 \u0e2b\u0e21\u0e39\u0e48\u0e17\u0e35\u0e48 11 Sukhumvit Rd, \u0e15\u0e33\u0e1a\u0e25 \u0e2b\u0e19\u0e2d\u0e07\u0e1b\u0e23\u0e37\u0e2d Amphoe Bang Lamung, Chang Wat Chon Buri 20150","geometry":{"location":{"lat":12.902577,"lng":100.896865},"viewport":{"northeast":{"lat":12.90392132989272,"lng":100.8981215798927},"southwest":{"lat":12.90122167010728,"lng":100.8954219201073}}},"icon":"https:\/\/maps.gstatic.com\/mapfiles\/place_api\/icons\/restaurant-71.png","id":"9993502650af3d0dd85a91252ffcf2d075c7f71f","name":"RueMai Pattaya","opening_hours":{"open_now":true},"photos":[{"height":3096,"html_attributions":["<a href=\"https:\/\/maps.google.com\/maps\/contrib\/113613981868508372196\/photos\">Kittanai Sarapee<\/a>"],"photo_reference":"CmRaAAAAlObwYlVkUOc8JSkjIlKX3X3VWbr5pQUF00Q_KyKoX2z5lRlUJY8uF-JR4f4yAeILo_sIAqj84mQXlCYk0sE74c0wAmrxj3JKFSqD6EqyXHFGvTEkyUCTv-HAb2gpnYQREhD1JVv0g-J85aCNRFi8uq1rGhTG7yp6Z2-U1qpexHUVOyVQWvALew","width":4128}],"place_id":"ChIJbeSEkNOVAjER076o-c9OKcE","plus_code":{"compound_code":"WV3W+2P Pattaya City, Bang Lamung District, Chon Buri","global_code":"7P42WV3W+2P"},"rating":4,"reference":"ChIJbeSEkNOVAjER076o-c9OKcE","types":["restaurant","food","point_of_interest","establishment"],"user_ratings_total":315},{"formatted_address":"Bang Phra, Si Racha District, Chon Buri 20110","geometry":{"location":{"lat":13.1999009,"lng":100.9477513},"viewport":{"northeast":{"lat":13.20127747989272,"lng":100.9491213798927},"southwest":{"lat":13.19857782010728,"lng":100.9464217201073}}},"icon":"https:\/\/maps.gstatic.com\/mapfiles\/place_api\/icons\/restaurant-71.png","id":"03305512191159a23f6687ed4aa5914dbc5c6617","name":"Khrua Mai Mueang","opening_hours":{"open_now":true},"photos":[{"height":3456,"html_attributions":["<a href=\"https:\/\/maps.google.com\/maps\/contrib\/102265678672574418530\/photos\">suwat Nora<\/a>"],"photo_reference":"CmRaAAAAwiI8RInH6VlCSqb8lAJmZlz4_VEByM7aTKS-zDtK-V4-GJ1YfLi9cQWgrT8w6a03DdUI7fXfw-WFD3I9J4N0aGzTQWVwjrIGoQJMQkjOwhNRhzYegD3ChUyY4vm_lYfNEhCvG5Ov-0bEbUNLK6Y3YFb-GhTil3cdneFm1FUwSdlLCsea5JmVsA","width":4608}],"place_id":"ChIJrVzybm-2AjERHa6WyZgzp_4","plus_code":{"compound_code":"5WXX+X4 Bang Phra, Si Racha District, Chon Buri","global_code":"7P525WXX+X4"},"price_level":2,"rating":4.1,"reference":"ChIJrVzybm-2AjERHa6WyZgzp_4","types":["restaurant","food","point_of_interest","establishment"],"user_ratings_total":109},{"formatted_address":"Noen Phra Sub-district, Mueang Rayong District, Rayong 21000","geometry":{"location":{"lat":12.683282,"lng":101.2294539},"viewport":{"northeast":{"lat":12.68469167989272,"lng":101.2308050298927},"southwest":{"lat":12.68199202010728,"lng":101.2281053701073}}},"icon":"https:\/\/maps.gstatic.com\/mapfiles\/place_api\/icons\/restaurant-71.png","id":"9eda2c0f0e7c1193014e7571a2dfab31ee341c8c","name":"\u0e04\u0e23\u0e31\u0e27 \u0e2d\u0e1a\u0e08 By \u0e23\u0e48\u0e21\u0e44\u0e21\u0e49","opening_hours":{"open_now":true},"photos":[{"height":3920,"html_attributions":["<a href=\"https:\/\/maps.google.com\/maps\/contrib\/102413921965284555280\/photos\">Tawatchai Hanpanyapichit<\/a>"],"photo_reference":"CmRaAAAA3awm_hVraEf8s66nX4NVpHhOsIrJnR5gmh9PrFE0yCtWH2mr7F-UCiYRaV-exYTgFeBbZpzdvuK7D7QMZmoD9s9skM4kZIeuKsVQl38XTcNwhMeI0Q_QU8Jc0ad9YWDeEhBUdXRSWPa2AhBcqa559FryGhTw7XsWvLerQQLHHy4It7zqcOC-Cg","width":5584}],"place_id":"ChIJq1vA2b_7AjER2zvk4qg63ZQ","plus_code":{"compound_code":"M6MH+8Q Rayong, Mueang Rayong District, Rayong","global_code":"7P43M6MH+8Q"},"rating":4.1,"reference":"ChIJq1vA2b_7AjER2zvk4qg63ZQ","types":["restaurant","food","point_of_interest","establishment"],"user_ratings_total":111},{"formatted_address":"61 12 \u0e0b Ban Bo Nam Jead Soi 5, Tambon Nong Khang Khok, Amphoe Mueang Chon Buri, Chang Wat Chon Buri 20000","geometry":{"location":{"lat":13.3321145,"lng":100.9993771},"viewport":{"northeast":{"lat":13.33358297989272,"lng":101.0006744298927},"southwest":{"lat":13.33088332010728,"lng":100.9979747701073}}},"icon":"https:\/\/maps.gstatic.com\/mapfiles\/place_api\/icons\/restaurant-71.png","id":"f50e513fcfec52afb965703e0ff880232f67a3de","name":"\u0e0a\u0e32\u0e19\u0e44\u0e21\u0e49 \u0e0a\u0e32\u0e22\u0e19\u0e49\u0e33","opening_hours":{"open_now":false},"photos":[{"height":960,"html_attributions":["<a href=\"https:\/\/maps.google.com\/maps\/contrib\/111978525810025588077\/photos\">chidchai suwapap<\/a>"],"photo_reference":"CmRaAAAA9jdlNmuuGpsOZ7UR9pCa4sc56nayfrB3Dwo9YXWUI7-bzB_mHbfaS8bCMmearqgLnGYy6VIU24j2AkABohkCxie2KGWKdn_J8iolZ89LDjbkH_fcFDrEPviRs535TUkDEhCGX6lqjWdO-oJi_4p_IubAGhSGlBaWe8U3zyUoGPHQdgrLzKC9XA","width":640}],"place_id":"ChIJYwwz6m41HTERRyOZvbESoCc","plus_code":{"compound_code":"8XJX+RQ Nong Khang Khok, Chon Buri District, Chon Buri","global_code":"7P528XJX+RQ"},"rating":4.5,"reference":"ChIJYwwz6m41HTERRyOZvbESoCc","types":["restaurant","food","point_of_interest","establishment"],"user_ratings_total":22},{"formatted_address":"Bangsaenlang Rd 14\/3, Tambon Saen Suk, Amphoe Mueang Chon Buri, Chang Wat Chon Buri 20130","geometry":{"location":{"lat":13.2740576,"lng":100.9232352},"viewport":{"northeast":{"lat":13.27543582989272,"lng":100.9246573798927},"southwest":{"lat":13.27273617010728,"lng":100.9219577201073}}},"icon":"https:\/\/maps.gstatic.com\/mapfiles\/place_api\/icons\/restaurant-71.png","id":"35b848582952a6d56ccd2fcba184895befa574e7","name":"\u0e23\u0e49\u0e32\u0e19\u0e2b\u0e21\u0e39\u0e01\u0e23\u0e30\u0e17\u0e30 \u0e40\u0e01\u0e49\u0e32\u0e2d\u0e35\u0e49\u0e44\u0e21\u0e49","opening_hours":{"open_now":false},"photos":[{"height":2736,"html_attributions":["<a href=\"https:\/\/maps.google.com\/maps\/contrib\/108322831504482003553\/photos\">Por CheckIn<\/a>"],"photo_reference":"CmRaAAAAw8r_6YxZhjAyb0s1yMZz3ekPMYuUvfgXr1eGuVEM8oK6MgTgtb7clD7A5RHCgHQHyqMR0eG7rGLmZuDeQX23YOTiC8OfO0HN97Slk-OsxmkGeb2uNn1OfbM7kbTmdFQIEhAFU8woUTOaCTA4xelB4oeIGhS9a-F6WPfoVXTJd1gFcNW3yzVMpA","width":3648}],"place_id":"ChIJMeG4-u-0AjERP6H0-IlbsnY","plus_code":{"compound_code":"7WFF+J7 Saen Suk, Chon Buri District, Chon Buri","global_code":"7P527WFF+J7"},"price_level":1,"rating":4.1,"reference":"ChIJMeG4-u-0AjERP6H0-IlbsnY","types":["restaurant","food","point_of_interest","establishment"],"user_ratings_total":139},{"formatted_address":"Pattaya City, Bang Lamung District, Chon Buri 20150","geometry":{"location":{"lat":12.993132,"lng":100.9232246},"viewport":{"northeast":{"lat":12.99454422989272,"lng":100.9246035298927},"southwest":{"lat":12.99184457010728,"lng":100.9219038701073}}},"icon":"https:\/\/maps.gstatic.com\/mapfiles\/place_api\/icons\/restaurant-71.png","id":"d7e5a35c78d29ded28f4e6cad30f9a35cf710d68","name":"\u0e04\u0e23\u0e31\u0e27\u0e23\u0e48\u0e21\u0e44\u0e21\u0e49\u0e0a\u0e32\u0e22\u0e40\u0e25 \u0e1e\u0e31\u0e17\u0e22\u0e32","opening_hours":{"open_now":true},"photos":[{"height":3096,"html_attributions":["<a href=\"https:\/\/maps.google.com\/maps\/contrib\/106988670811773697233\/photos\">A Google User<\/a>"],"photo_reference":"CmRaAAAA5v2CMwWBVGw9MSWaCCjEkRf-kfezqgMM4cKgn9cnryCIFAmPWQYDU-4s0POsOu_fM2VsKwC3zSleKN0DFxdEY2ic6WW0_owLN_wvh2zmi8wDx1lT3QCWt9-7KSeuyMz6EhCyVQip2DEd97ioXlNVpUd1GhT-tA_EwLmm3SEdYjQ9hyIgmfaw4g","width":4128}],"place_id":"ChIJXaoMQve-AjERUj2x6lfIJqI","plus_code":{"compound_code":"XWVF+77 Pattaya City, Bang Lamung District, Chon Buri","global_code":"7P42XWVF+77"},"price_level":1,"rating":3.8,"reference":"ChIJXaoMQve-AjERUj2x6lfIJqI","types":["restaurant","food","point_of_interest","establishment"],"user_ratings_total":24},{"formatted_address":"\u0e2b\u0e21\u0e39\u0e48\u0e17\u0e35\u0e48 9 35 Sukhumvit Rd, Bang Lamung District, Chon Buri 20150","geometry":{"location":{"lat":12.9278899,"lng":100.8999094},"viewport":{"northeast":{"lat":12.92927067989272,"lng":100.9011467298927},"southwest":{"lat":12.92657102010728,"lng":100.8984470701073}}},"icon":"https:\/\/maps.gstatic.com\/mapfiles\/place_api\/icons\/restaurant-71.png","id":"44be9133ff0f6646bee8ca13b9f90f8967dcab5f","name":"KRUA ROM MAI HALAL FOOD","opening_hours":{"open_now":true},"photos":[{"height":2448,"html_attributions":["<a href=\"https:\/\/maps.google.com\/maps\/contrib\/111974455288033656756\/photos\">toapong roj<\/a>"],"photo_reference":"CmRaAAAAAY_ozUedgskmFkBjK6JXtxrxyoZbZ9g0w0XHTXwaA2pwdPEh2YBlXzNO4VBCIk-49bz9bPDqTXR3l9yodPfnQrGSK5OZk_SIuhVCowbJ7Xbt36w9b9aVpJOjtDPsEvVtEhAYHzN4dayI_G4A4QKJzJjYGhQgI_b7k6uqeq93jKIxnoVEeni8Jg","width":3264}],"place_id":"ChIJWztp3OWVAjER0GJ1Mok-O5E","plus_code":{"compound_code":"WVHX+5X Pattaya City, Bang Lamung District, Chon Buri","global_code":"7P42WVHX+5X"},"rating":4.3,"reference":"ChIJWztp3OWVAjER0GJ1Mok-O5E","types":["restaurant","food","point_of_interest","establishment"],"user_ratings_total":182},{"formatted_address":"\u0e2b\u0e21\u0e39\u0e48\u0e17\u0e35\u0e48 12 391\/79 Thanon Thap Phraya, Bang Lamung District, Chon Buri 20260","geometry":{"location":{"lat":12.912564,"lng":100.87246},"viewport":{"northeast":{"lat":12.91395362989272,"lng":100.8737380798927},"southwest":{"lat":12.91125397010728,"lng":100.8710384201073}}},"icon":"https:\/\/maps.gstatic.com\/mapfiles\/place_api\/icons\/restaurant-71.png","id":"2e8bdb74266785d7c355f0c9551640eb95e9c67c","name":"\u0e23\u0e49\u0e32\u0e19\u0e2d\u0e32\u0e2b\u0e32\u0e23\u0e04\u0e23\u0e31\u0e27\u0e1e\u0e31\u0e19\u0e18\u0e38\u0e4c\u0e44\u0e21\u0e49 \u0e1e\u0e31\u0e17\u0e22\u0e32","opening_hours":{"open_now":true},"photos":[{"height":1108,"html_attributions":["<a href=\"https:\/\/maps.google.com\/maps\/contrib\/109700525164657313019\/photos\">A Google User<\/a>"],"photo_reference":"CmRaAAAAaFSd9OoZBN5yIYmWXLrAQhFJUeYu1GuDCvX-0gA_w9z53aiD5HWA81TpnX5c2LPRhC0GVhRmUxjAHTQMJTzSaTQRw0XgDA043W1SzGRyBhZTW1Bh-f0lxYXZREasicOgEhBt9ewatLaRe6XfYTTEucXJGhRQlK0pCYM1zJCr4yqfV-TRn85G3Q","width":1478}],"place_id":"ChIJeTvOu2iWAjERP8atRX7_0UE","plus_code":{"compound_code":"WV7C+2X Pattaya City, Bang Lamung District, Chon Buri","global_code":"7P42WV7C+2X"},"rating":3.9,"reference":"ChIJeTvOu2iWAjERP8atRX7_0UE","types":["restaurant","food","point_of_interest","establishment"],"user_ratings_total":67}],"Bangsue":[{"formatted_address":"9\/11 \u0e16. \u0e40\u0e17\u0e2d\u0e14\u0e14\u0e33\u0e23\u0e34 \u0e15\u0e34\u0e14\u0e01\u0e31\u0e1a\u0e23\u0e16\u0e44\u0e1f\u0e43\u0e15\u0e49\u0e14\u0e34\u0e19\u0e1a\u0e32\u0e07\u0e0b\u0e37\u0e48\u0e2d \u0e17\u0e32\u0e07\u0e2d\u0e2d\u0e01 \u0e1b\u0e23\u0e30\u0e15\u0e391 Therddumri Rd. MRT: Bangsue station :exit 1 02.585.8767 ,02.585.9006, 086.980.8222 Line @bellacasabkk Bang Sue, Bangkok 10800","geometry":{"location":{"lat":13.7797654,"lng":100.5293482},"viewport":{"northeast":{"lat":13.78105587989272,"lng":100.5308534798927},"southwest":{"lat":13.77835622010728,"lng":100.5281538201073}}},"icon":"https:\/\/maps.gstatic.com\/mapfiles\/place_api\/icons\/restaurant-71.png","id":"72cfed271968a2f11b4d2101eb120a414675d252","name":"Bella Casa \u0e23\u0e49\u0e32\u0e19\u0e2d\u0e32\u0e2b\u0e32\u0e23\u0e40\u0e1a\u0e25\u0e25\u0e48\u0e32 \u0e04\u0e32\u0e0b\u0e48\u0e32","opening_hours":{"open_now":true},"photos":[{"height":3024,"html_attributions":["<a href=\"https:\/\/maps.google.com\/maps\/contrib\/110001683358037388352\/photos\">A Google User<\/a>"],"photo_reference":"CmRaAAAAnOELa_SUOUGsZjkZuK6h1b6ozBIBir35pVNPVJFE_PYwdN5U0a2vQwXVupmz7lmUZTdVuDSk4aei1qmahMrlAxi_CK9w1uybeTs3ZZN2HThuT2GeIAN0uIesuh9mnO-CEhAqdVYOJx3i5W1nWNwgbf7MGhQbyu2JR49zOyYPHQ0yhLywtsdL0Q","width":4032}],"place_id":"ChIJpQIYOw2c4jARAuLothgZn9Y","plus_code":{"compound_code":"QGHH+WP Bangkok","global_code":"7P52QGHH+WP"},"price_level":2,"rating":4.2,"reference":"ChIJpQIYOw2c4jARAuLothgZn9Y","types":["restaurant","food","point_of_interest","establishment"],"user_ratings_total":243},{"formatted_address":"162, 1 Pracha Rat Sai 2 Rd, Khwaeng Bang Sue, Khet Bang Sue, Krung Thep Maha Nakhon 10800","geometry":{"location":{"lat":13.8052051,"lng":100.5241228},"viewport":{"northeast":{"lat":13.80679072989272,"lng":100.5256405798927},"southwest":{"lat":13.80409107010728,"lng":100.5229409201073}}},"icon":"https:\/\/maps.gstatic.com\/mapfiles\/place_api\/icons\/restaurant-71.png","id":"376ef2cf6ae0e24b18cd184b9cd58643c68823f1","name":"MK Restaurant-Gateway Bangsue","opening_hours":{"open_now":true},"photos":[{"height":1365,"html_attributions":["<a href=\"https:\/\/maps.google.com\/maps\/contrib\/117840845425636014645\/photos\">BIGSHOW LOWLAR<\/a>"],"photo_reference":"CmRaAAAAdABOW65dSLlSfObggTICLLQM3Xo_gjSNNIKk28zkeALxz1Z4POcb0d8dnpZSSmI896dgxckRp4lTxx8QsfFDIwkIHOMU8iPQdHyciktP_wFXxw-ENMR46zOtE_bWYI7cEhCtih89XfNbZ9yv6JZtsEhuGhREcNpBT5HecSnLX7pwrW-_ZIt-Cw","width":2048}],"place_id":"ChIJdcdrnIyb4jARidxLOO6zAZs","plus_code":{"compound_code":"RG4F+3J Bangkok","global_code":"7P52RG4F+3J"},"price_level":2,"rating":4.1,"reference":"ChIJdcdrnIyb4jARidxLOO6zAZs","types":["restaurant","food","point_of_interest","establishment"],"user_ratings_total":21},{"formatted_address":"162\/1 Pracha Rat Sai 2 Rd, Khwaeng Bang Sue, Khet Bang Sue, Krung Thep Maha Nakhon 10800","geometry":{"location":{"lat":13.8056303,"lng":100.5236035},"viewport":{"northeast":{"lat":13.80705057989272,"lng":100.5247943798927},"southwest":{"lat":13.80435092010728,"lng":100.5220947201073}}},"icon":"https:\/\/maps.gstatic.com\/mapfiles\/place_api\/icons\/restaurant-71.png","id":"4bf562a7dca1da4e7f488b40f5a335fa2374bc8f","name":"Time&Tales gateway bangsue","opening_hours":{"open_now":true},"photos":[{"height":2976,"html_attributions":["<a href=\"https:\/\/maps.google.com\/maps\/contrib\/105359838543665032930\/photos\">Pty L<\/a>"],"photo_reference":"CmRaAAAAWz3qXji4m320WfrU1f3_BhjwQLBOBpDfMC0hHT6MtEtL03-LfylAdWZwoJiyOH-3cHPjJVh6l3wACjAoljVHpBhZTSvUVUkjSg5ByCaL0yNLwWoDmaZ5PI9r4WMDMwGFEhDrTRsjyao8iiVY8J7RwqhaGhQQrH9VwHwiJj1BmtOEcSQIXeqHHw","width":3968}],"place_id":"ChIJh67w6WSb4jARhDt-7y2zPEk","plus_code":{"compound_code":"RG4F+7C Bangkok","global_code":"7P52RG4F+7C"},"rating":4.6,"reference":"ChIJh67w6WSb4jARhDt-7y2zPEk","types":["restaurant","food","point_of_interest","establishment"],"user_ratings_total":5},{"formatted_address":"Bang Sue, Bangkok 10800","geometry":{"location":{"lat":13.8056134,"lng":100.5240538},"viewport":{"northeast":{"lat":13.80700852989272,"lng":100.5255995298927},"southwest":{"lat":13.80430887010728,"lng":100.5228998701073}}},"icon":"https:\/\/maps.gstatic.com\/mapfiles\/place_api\/icons\/restaurant-71.png","id":"ba7af8aef58a0038a2d4e82800a0d1e4d4d5fa01","name":"Kousen Gateway Bangsue","opening_hours":{"open_now":true},"photos":[{"height":3780,"html_attributions":["<a href=\"https:\/\/maps.google.com\/maps\/contrib\/117840845425636014645\/photos\">BIGSHOW LOWLAR<\/a>"],"photo_reference":"CmRaAAAAKFQrVUX2uLug_BHFCVMwP8xBcXHu2ngfF7o0cjohAiTuvXPOAi-T9BiezlMZqZXrxg6goZwzdfwqDCo5zUBSrbsir-f7g8cbctjfM9Ln2Z7nFx8ktUd447NvcUusyJwOEhAEiX98BV052GGMSRzSO6NzGhSK721DyZr12H5UCETw2BtzUWWh6w","width":7316}],"place_id":"ChIJT24IxGeb4jARjk_M2hJcXCg","plus_code":{"compound_code":"RG4F+6J Bangkok","global_code":"7P52RG4F+6J"},"rating":3.1,"reference":"ChIJT24IxGeb4jARjk_M2hJcXCg","types":["restaurant","food","point_of_interest","establishment"],"user_ratings_total":12},{"formatted_address":"Bang Sue, Bangkok 10800","geometry":{"location":{"lat":13.8051891,"lng":100.5235787},"viewport":{"northeast":{"lat":13.80655857989272,"lng":100.5246436298927},"southwest":{"lat":13.80385892010728,"lng":100.5219439701073}}},"icon":"https:\/\/maps.gstatic.com\/mapfiles\/place_api\/icons\/restaurant-71.png","id":"7b0dd051c9fda77f8c3f079a704c26c7c78e2c70","name":"Ootaya-Gateway Bangsue","opening_hours":{"open_now":true},"photos":[{"height":4608,"html_attributions":["<a href=\"https:\/\/maps.google.com\/maps\/contrib\/104244303826202218488\/photos\">Wimolmas Narkswasdi<\/a>"],"photo_reference":"CmRaAAAAI2QtzaxoD58VgJXlfyQGU9C3rDx2Ui5fqbLu6CLYN0s1u67rkPfm0HqImyNFMhfDkzl8gKF4Ruxu8vNq7KsQKBb9EBEa-mNLQdPO4NeE9oLOQZVYHn-zu5g6-yjJVUaZEhDbg5__rPFeK0BOQclEhtWnGhTZJBnM5Ex4hl1AcYLoyi0vHqDFtw","width":3456}],"place_id":"ChIJaZBphZOb4jARRLvxAYJ8_HY","plus_code":{"compound_code":"RG4F+3C Bangkok","global_code":"7P52RG4F+3C"},"rating":4,"reference":"ChIJaZBphZOb4jARRLvxAYJ8_HY","types":["restaurant","food","point_of_interest","establishment"],"user_ratings_total":5},{"formatted_address":"\u0e28\u0e39\u0e19\u0e22\u0e4c\u0e01\u0e32\u0e23\u0e04\u0e49\u0e32\u0e40\u0e01\u0e15\u0e40\u0e27\u0e22\u0e4c \u0e1a\u0e32\u0e07\u0e0b\u0e37\u0e48\u0e2d \u0e0a\u0e31\u0e49\u0e19 4 Bang Sue, Bangkok 10800","geometry":{"location":{"lat":13.8062531,"lng":100.5243475},"viewport":{"northeast":{"lat":13.80765292989272,"lng":100.5256973798927},"southwest":{"lat":13.80495327010728,"lng":100.5229977201073}}},"icon":"https:\/\/maps.gstatic.com\/mapfiles\/place_api\/icons\/restaurant-71.png","id":"ddddd6096ad15571332eadf73f89289f0f690334","name":"Orca-Gateway Bangsue","opening_hours":{"open_now":true},"photos":[{"height":3840,"html_attributions":["<a href=\"https:\/\/maps.google.com\/maps\/contrib\/112178871744643308631\/photos\">Means DumeanoN<\/a>"],"photo_reference":"CmRaAAAAkUhNs9MvFz-b8VagmH3VcuoN2Ul1RPJJNQRYLEaYxuN9VWOJCSicMEUyGJhRephPQAfVdY0byg0fgMUGenl5Zf1ZY27LDQX4qyM2ei0tM4tRLwTkcYYKvzI0jpiK9j_bEhAbO2xHV-OiCpv5tey-yNQbGhTBApZ-sEVCYVZaHWPPBGT1m4Gdzg","width":5120}],"place_id":"ChIJOdMbJgeb4jAR94s6ZU5EBus","plus_code":{"compound_code":"RG4F+GP Bangkok","global_code":"7P52RG4F+GP"},"rating":3.5,"reference":"ChIJOdMbJgeb4jAR94s6ZU5EBus","types":["restaurant","food","point_of_interest","establishment"],"user_ratings_total":8},{"formatted_address":"442 Phahonyothin Rd, Khwaeng Samsen Nai, Khet Phaya Thai, Krung Thep Maha Nakhon 10400","geometry":{"location":{"lat":13.7869948,"lng":100.5476967},"viewport":{"northeast":{"lat":13.78839722989272,"lng":100.5488883798927},"southwest":{"lat":13.78569757010728,"lng":100.5461887201073}}},"icon":"https:\/\/maps.gstatic.com\/mapfiles\/place_api\/icons\/restaurant-71.png","id":"f25e49e1b95a01db5bcc083bd4b4d1ede6392492","name":"Krua Bang Sue","place_id":"ChIJ13q8axmc4jAREL_LD1rVPy8","plus_code":{"compound_code":"QGPX+Q3 Bangkok","global_code":"7P52QGPX+Q3"},"rating":0,"reference":"ChIJ13q8axmc4jAREL_LD1rVPy8","types":["restaurant","food","point_of_interest","establishment"],"user_ratings_total":0},{"formatted_address":"3, 393, 393\/3 Pracha Rat Sai 2 Rd, Bang Sue, Bangkok 10800","geometry":{"location":{"lat":13.8064872,"lng":100.5211238},"viewport":{"northeast":{"lat":13.80780277989272,"lng":100.5224728798927},"southwest":{"lat":13.80510312010728,"lng":100.5197732201073}}},"icon":"https:\/\/maps.gstatic.com\/mapfiles\/place_api\/icons\/restaurant-71.png","id":"3164ea94ea39c4e304419a2468df13730aea0500","name":"\u0e08\u0e31\u0e4a\u0e01\u0e2b\u0e19\u0e48\u0e2d\u0e22 Jaknoi Restaurant","opening_hours":{"open_now":true},"photos":[{"height":3120,"html_attributions":["<a href=\"https:\/\/maps.google.com\/maps\/contrib\/114010506483392951544\/photos\">A Google User<\/a>"],"photo_reference":"CmRaAAAAL9kth6_yfaFAOrlRcr6tz5hVTuBW_3qgtUmHKJN6mlYHjLoDauJHoIffGicl4YoiZwnqR0XYcGHmHcBeiB-xnlESE9ZxrKypbpct_slWTTCCaEusrD6ibG3wZtFMxyVJEhDnjYJgL69lyginvWOnhfZ3GhRpKXymfSI4cjUVHHMu0BJcHJ0KGg","width":4160}],"place_id":"ChIJ-yZhqo2b4jARsYKjNsLniIw","plus_code":{"compound_code":"RG4C+HC Bangkok","global_code":"7P52RG4C+HC"},"rating":4.4,"reference":"ChIJ-yZhqo2b4jARsYKjNsLniIw","types":["restaurant","food","point_of_interest","establishment"],"user_ratings_total":57},{"formatted_address":"662 Rd, Techawanit, Bang Sue, Bangkok 10800","geometry":{"location":{"lat":13.802348,"lng":100.534942},"viewport":{"northeast":{"lat":13.80373022989272,"lng":100.5362260798927},"southwest":{"lat":13.80103057010728,"lng":100.5335264201073}}},"icon":"https:\/\/maps.gstatic.com\/mapfiles\/place_api\/icons\/restaurant-71.png","id":"9d1e0492e2153404590409c04b24465a6aad9f2f","name":"Kumamura Food.Bar","opening_hours":{"open_now":true},"photos":[{"height":2160,"html_attributions":["<a href=\"https:\/\/maps.google.com\/maps\/contrib\/110539935311699142571\/photos\">Pongdanai Thaoju<\/a>"],"photo_reference":"CmRaAAAA3LrL378Vf2haHRsm5gwKsEtgyFJx7hWh8rF3l7xm9bcJeHaBrmW7nlfCAefD7VL5MnzUzz1MzlH6HJlSB-jMumzgOA-h7l-BVgrILF0jeNDRJRSW7_PCkzq5QI-pYq-nEhD2yHLJADpgEQhdvCFz3RuoGhQsHu94ARqShxwhweNjlTz7FKmJVA","width":3840}],"place_id":"ChIJdWfiWQuc4jARi2oLVe-QNGs","plus_code":{"compound_code":"RG2M+WX Bangkok","global_code":"7P52RG2M+WX"},"rating":4.2,"reference":"ChIJdWfiWQuc4jARi2oLVe-QNGs","types":["restaurant","food","point_of_interest","establishment"],"user_ratings_total":94},{"formatted_address":"85\/5 \u0e2b\u0e21\u0e39\u0e48 9 \u0e0b\u0e2d\u0e22\u0e17\u0e34\u0e21\u0e41\u0e25\u0e19\u0e14\u0e4c\u0e14\u0e27\u0e07\u0e21\u0e13\u0e35 \u0e0b\u0e2d\u0e22\u0e17\u0e34\u0e21\u0e41\u0e25\u0e19\u0e14\u0e4c\u0e14\u0e27\u0e07\u0e21\u0e13\u0e35 \u0e16\u0e19\u0e19\u0e07\u0e32\u0e21\u0e27\u0e07\u0e28\u0e4c\u0e27\u0e32\u0e19 107 \u0e15\u0e33\u0e1a\u0e25\u0e1a\u0e32\u0e07\u0e40\u0e02\u0e19 \u0e2d\u0e33\u0e40\u0e20\u0e2d\u0e40\u0e21\u0e37\u0e2d\u0e07 Chang Wat Nonthaburi 11000","geometry":{"location":{"lat":13.843703,"lng":100.529047},"viewport":{"northeast":{"lat":13.84510917989272,"lng":100.5303923298927},"southwest":{"lat":13.84240952010728,"lng":100.5276926701073}}},"icon":"https:\/\/maps.gstatic.com\/mapfiles\/place_api\/icons\/restaurant-71.png","id":"224d2cbe2797687cea579f1b432691ae04c98f85","name":"The Best Restaurant","opening_hours":{"open_now":true},"photos":[{"height":858,"html_attributions":["<a href=\"https:\/\/maps.google.com\/maps\/contrib\/109078638062241358261\/photos\">The Best Restaurant<\/a>"],"photo_reference":"CmRaAAAAb8KPpZHBB8k8jOXegHsklMTV23aKLBu2MdRX4ozMzZC6tBEwR46hmB7zVMK7KkUyvJt2n26YeoZzDmdZLSb5fcYTehvxix9p7dOoM1psO-L29z2PafwZsBfUyCHkm8P3EhAJuix2lCAmmU1X_-CtYYOTGhRvUupYIIxQg8lSlQkpHtBmYXaTFg","width":672}],"place_id":"ChIJC2_PyGGb4jAR_OkKGVyURPY","plus_code":{"compound_code":"RGVH+FJ Nonthaburi, Mueang Nonthaburi District, Nonthaburi","global_code":"7P52RGVH+FJ"},"rating":4.5,"reference":"ChIJC2_PyGGb4jAR_OkKGVyURPY","types":["restaurant","food","point_of_interest","establishment"],"user_ratings_total":39},{"formatted_address":"Rest Area, \u0e0b\u0e2d\u0e22 \u0e1b\u0e23\u0e30\u0e0a\u0e32\u0e0a\u0e37\u0e48\u0e19 Khwaeng Wong Sawang, Khet Bang Sue, Krung Thep Maha Nakhon 10800","geometry":{"location":{"lat":13.8412468,"lng":100.533822},"viewport":{"northeast":{"lat":13.84261852989272,"lng":100.5352069298927},"southwest":{"lat":13.83991887010728,"lng":100.5325072701073}}},"icon":"https:\/\/maps.gstatic.com\/mapfiles\/place_api\/icons\/restaurant-71.png","id":"029f6ce3be67ea7e9b1834b9b1222fdaffad1980","name":"Burger King","opening_hours":{"open_now":true},"photos":[{"height":3036,"html_attributions":["<a href=\"https:\/\/maps.google.com\/maps\/contrib\/113262991702232834101\/photos\">Supachai Saisueb<\/a>"],"photo_reference":"CmRaAAAAE8TP8cctR7k6V1CptRSCoNOqIxuNwZyy447lZBaUZ1novb556KJVpphSkYkd4OivdSDRjyHr3IjUGmJDvfN400mCzV495XK_6mweg_yo6l9jfdpglUQ111OlWnGKbxpnEhBi4WwECwUFw-5DInVr5l3lGhS3iVP0Nibp-1c4iRjzj0a80yVHkw","width":4048}],"place_id":"ChIJj94maJyc4jARtT0NHVnMqQ8","plus_code":{"compound_code":"RGRM+FG Bangkok","global_code":"7P52RGRM+FG"},"price_level":2,"rating":4.3,"reference":"ChIJj94maJyc4jARtT0NHVnMqQ8","types":["restaurant","food","point_of_interest","establishment"],"user_ratings_total":365},{"formatted_address":"367, 5 \u0e16\u0e19\u0e19 \u0e01\u0e23\u0e38\u0e07\u0e40\u0e17\u0e1e - \u0e19\u0e19\u0e17\u0e1a\u0e38\u0e23\u0e35 Khwaeng Bang Sue, Khet Bang Sue, Krung Thep Maha Nakhon 10800","geometry":{"location":{"lat":13.8110418,"lng":100.5312451},"viewport":{"northeast":{"lat":13.81238772989272,"lng":100.5326421298927},"southwest":{"lat":13.80968807010728,"lng":100.5299424701073}}},"icon":"https:\/\/maps.gstatic.com\/mapfiles\/place_api\/icons\/restaurant-71.png","id":"518b0caf649263329897198c6bef34d120665ca5","name":"Rotdet Tao Pun","opening_hours":{"open_now":true},"photos":[{"height":640,"html_attributions":["<a href=\"https:\/\/maps.google.com\/maps\/contrib\/101630529205289786035\/photos\">A Google User<\/a>"],"photo_reference":"CmRaAAAAuPYKhMlcA1hPfbclx7LYgLuIGIyDlYQ46iENS54fFyXqqt9SPTb9fMeyFKlqcdM8k2ChQWjiPzW2TSk376hW_y6-3lW3l363diyCfkRdgQ5YzYe6oDvfA-S_vOdb1ESxEhDuvhgfl2gRVZKNq5hH_ZiEGhSh_8vtdKLd_nePqHDeXpgj6lKOiQ","width":960}],"place_id":"ChIJ6ZD3SHac4jARePDT9WBypow","plus_code":{"compound_code":"RG6J+CF Bangkok","global_code":"7P52RG6J+CF"},"rating":3.9,"reference":"ChIJ6ZD3SHac4jARePDT9WBypow","types":["restaurant","food","point_of_interest","establishment"],"user_ratings_total":24},{"formatted_address":"1285\/1 Prachachuen Rd. Bangsue Bangkok Bangsue Bangkok 10800","geometry":{"location":{"lat":13.8237916,"lng":100.5373319},"viewport":{"northeast":{"lat":13.82513427989272,"lng":100.5387158298927},"southwest":{"lat":13.82243462010728,"lng":100.5360161701073}}},"icon":"https:\/\/maps.gstatic.com\/mapfiles\/place_api\/icons\/restaurant-71.png","id":"696cd08afcb45b94a249566d32de9f24fafcc0d1","name":"The Pizza Company","opening_hours":{"open_now":true},"photos":[{"height":4160,"html_attributions":["<a href=\"https:\/\/maps.google.com\/maps\/contrib\/102292182754706181211\/photos\">Prince Gajjar<\/a>"],"photo_reference":"CmRaAAAAMYwvjGFJ153MFpf13Z-NTgkexd_KegZsGGsCT8jhLPq7lgTCzihXyOw6TN56CbXhuYVIH4s2PDwgbVM8RMEAVBTJ3VfYuYkQCexG7gXrzQOFPi3HNrZeD_1TW6nhlNCrEhCpnxjLczoHXPKRNJlbEqLhGhS0S4gYyDJKe4YaNIn46ujN0YvoDQ","width":3120}],"place_id":"ChIJAQC_8pyb4jARJfosoUhV0Mo","plus_code":{"compound_code":"RGFP+GW Bangkok","global_code":"7P52RGFP+GW"},"price_level":2,"rating":3.6,"reference":"ChIJAQC_8pyb4jARJfosoUhV0Mo","types":["meal_delivery","meal_takeaway","restaurant","food","point_of_interest","establishment"],"user_ratings_total":7},{"formatted_address":"177 Thetsaban Nimit Nue Rd, Khwaeng Lat Yao, Khet Chatuchak, Krung Thep Maha Nakhon 10900","geometry":{"location":{"lat":13.8422728,"lng":100.5429708},"viewport":{"northeast":{"lat":13.84364247989272,"lng":100.5443192798927},"southwest":{"lat":13.84094282010728,"lng":100.5416196201073}}},"icon":"https:\/\/maps.gstatic.com\/mapfiles\/place_api\/icons\/restaurant-71.png","id":"0a4a0e71a001919af5dff3dc64ddce2f401aa7ea","name":"Home","opening_hours":{"open_now":true},"photos":[{"height":2937,"html_attributions":["<a href=\"https:\/\/maps.google.com\/maps\/contrib\/109635675310905117550\/photos\">Home Vietnamese Restaurant<\/a>"],"photo_reference":"CmRaAAAAOzAPhcIaiTNNqIY1mmcQpCw5Ux45Gan46wB3I1UdnkMni0LktiT10_q-cPM8TlJKHEZLFPI9iZwmu6yMquchOTFQnQEUQz0CN9Q67CfMPV6FYxx8vNNzfM5qBz9no7PuEhCOkVha1aDT1c3Wlqj0WkFLGhTdRn3rZ0AdfQ1v8PttHcavUF8mIQ","width":7771}],"place_id":"ChIJF4knzpCc4jARJG63lL8lDMM","plus_code":{"compound_code":"RGRV+W5 Bangkok","global_code":"7P52RGRV+W5"},"price_level":2,"rating":4.3,"reference":"ChIJF4knzpCc4jARJG63lL8lDMM","types":["restaurant","food","point_of_interest","establishment"],"user_ratings_total":56},{"formatted_address":"427 \u0e21 \u0e1b\u0e23\u0e30\u0e0a\u0e32\u0e19\u0e34\u0e40\u0e27\u0e28\u0e19\u0e4c1 \u0e0b., 13, Thetsaban Nimit Tai Rd, Lat Yao, Chatuchak, Bangkok 10900","geometry":{"location":{"lat":13.8341271,"lng":100.5487891},"viewport":{"northeast":{"lat":13.83549802989272,"lng":100.5501553798927},"southwest":{"lat":13.83279837010728,"lng":100.5474557201073}}},"icon":"https:\/\/maps.gstatic.com\/mapfiles\/place_api\/icons\/restaurant-71.png","id":"a134a4012cbf08d7a347402258079d57bd869307","name":"PaN Bake & Bistro","opening_hours":{"open_now":false},"photos":[{"height":5312,"html_attributions":["<a href=\"https:\/\/maps.google.com\/maps\/contrib\/109974508672748536221\/photos\">onn chon<\/a>"],"photo_reference":"CmRaAAAAHKIFWvkhcMMUg7QWBP9tlSzJgwwmzTWR-QmCcQLBb2bgpGBA9bagJad1SYQGnmHZtHDV2Wlb2lGSK3podm0bp5iI30CCNEOHK5tcAXNXms6K1BemuEUB7Ej-YHkPMaSyEhBZfl7qpGXAugn9eL5uR5ajGhQmnmWv69FOdn2aBSDYxIlQKJmdYw","width":2988}],"place_id":"ChIJzQpcq42c4jARK88B1ECwPzU","plus_code":{"compound_code":"RGMX+MG Bangkok","global_code":"7P52RGMX+MG"},"price_level":2,"rating":4.7,"reference":"ChIJzQpcq42c4jARK88B1ECwPzU","types":["restaurant","bakery","cafe","store","food","point_of_interest","establishment"],"user_ratings_total":62},{"formatted_address":"Wong Sawang, Bang Sue, Bangkok 10800","geometry":{"location":{"lat":13.8417348,"lng":100.5329275},"viewport":{"northeast":{"lat":13.84306842989272,"lng":100.5342614298927},"southwest":{"lat":13.84036877010728,"lng":100.5315617701073}}},"icon":"https:\/\/maps.gstatic.com\/mapfiles\/place_api\/icons\/restaurant-71.png","id":"00062ea8e74489885dfdecd3b8283e5966e7dd0b","name":"Aaleyah by Chomkwan","opening_hours":{"open_now":true},"photos":[{"height":1108,"html_attributions":["<a href=\"https:\/\/maps.google.com\/maps\/contrib\/101423103684803484651\/photos\">\u0e40\u0e2d\u0e47\u0e21\u0e08\u0e35\u0e42\u0e1b\u0e23\u0e40\u0e01\u0e23\u0e2a2016 \u0e23\u0e31\u0e07\u0e2a\u0e34\u0e15 \u0e1b\u0e17\u0e38\u0e21\u0e18\u0e32\u0e19\u0e35<\/a>"],"photo_reference":"CmRaAAAAXsfL84cd8kLnElP9k6DUVfE9WDy5NSf6edwzuUHpJ2RKSaUJjyA1V103HizmudLvrnLEpKBrlJMbKhYpppajeIbykyVYAMFlpZUZr1PM0UOFm4JmtorWMg3FLJXzP7qiEhCCZnvkHv1sdImIw1BThyvwGhR_yQpmyIFi-gjm49UaDve0I_8BZw","width":1478}],"place_id":"ChIJey1QNpyc4jARJ4O3gJqX2nw","plus_code":{"compound_code":"RGRM+M5 Bangkok","global_code":"7P52RGRM+M5"},"rating":4.2,"reference":"ChIJey1QNpyc4jARJ4O3gJqX2nw","types":["restaurant","food","point_of_interest","establishment"],"user_ratings_total":80},{"formatted_address":"1695 Phahonyothin Rd, Khwaeng Chatuchak, Khet Chatuchak, Krung Thep Maha Nakhon 10900","geometry":{"location":{"lat":13.8171184,"lng":100.5604849},"viewport":{"northeast":{"lat":13.81856667989272,"lng":100.5616924798927},"southwest":{"lat":13.81586702010728,"lng":100.5589928201073}}},"icon":"https:\/\/maps.gstatic.com\/mapfiles\/place_api\/icons\/restaurant-71.png","id":"47cb6a4c1b4bc60e4a956d31e3e242ccc04337dc","name":"Suan Bua Restaurant, Centara Grand at Central Plaza Ladprao Bangkok","opening_hours":{"open_now":true},"photos":[{"height":1960,"html_attributions":["<a href=\"https:\/\/maps.google.com\/maps\/contrib\/107446059189651307927\/photos\">Thakonrit Arriyavat<\/a>"],"photo_reference":"CmRaAAAAj-oxUP7iRidARXaNtjoWWbfQQo6M4byXa1mHk47lQEsXubfllK2hGsEAmIxHwfTqIJ1n5NMuT2uDfZWiQ0tYXEUCoEMjIhS_Td2tWrMUSGb7-lnzFYImwkEhxY30vPTgEhCs7pNBsYhAPaY1nwK4yh_cGhTw_89BHzQiwNRKrWwzg7u5ygnw_Q","width":4032}],"place_id":"ChIJ5aAMMlqc4jARH618-WR6gu8","plus_code":{"compound_code":"RH86+R5 Bangkok","global_code":"7P52RH86+R5"},"rating":4.5,"reference":"ChIJ5aAMMlqc4jARH618-WR6gu8","types":["restaurant","food","point_of_interest","establishment"],"user_ratings_total":86},{"formatted_address":"Pracha Rat Sai 1 Soi 20, Khwaeng Bang Sue, Khet Bang Sue, Krung Thep Maha Nakhon 10800","geometry":{"location":{"lat":13.807439,"lng":100.521951},"viewport":{"northeast":{"lat":13.80882917989272,"lng":100.5232994798927},"southwest":{"lat":13.80612952010728,"lng":100.5205998201073}}},"icon":"https:\/\/maps.gstatic.com\/mapfiles\/place_api\/icons\/restaurant-71.png","id":"c2a76ebd669cd7eba2cf384af32c1c32ee39c69a","name":"Toh's Grilled duck","opening_hours":{"open_now":true},"photos":[{"height":3024,"html_attributions":["<a href=\"https:\/\/maps.google.com\/maps\/contrib\/116036362171579357241\/photos\">Nont Nimityongskul<\/a>"],"photo_reference":"CmRaAAAA3zmZO9ofKkpEJ563BYuWhggaL51RUBmir6tMrkFBH0NHq6chXoalw8i_BVZdPX0bpR5nVwQxvML837K-yEjkPkV6SIwrG9RZSmolF_UgVyyRhOkoDyVXuzHue_vvlecEEhB3M56ZUG9PcPIgtz5rpWhBGhSL-7mHjA2zDhvdJcTrEztCuworjQ","width":4032}],"place_id":"ChIJxya9RYyb4jARKrIqfI_hDes","plus_code":{"compound_code":"RG4C+XQ Bangkok","global_code":"7P52RG4C+XQ"},"price_level":2,"rating":4.3,"reference":"ChIJxya9RYyb4jARKrIqfI_hDes","types":["restaurant","food","point_of_interest","establishment"],"user_ratings_total":80},{"formatted_address":"Gateway Bangsue 162\/1-2,168\/10 Pracharaj Sai 2 Raod, Bang Sue, Bangkok 10800","geometry":{"location":{"lat":13.8056377,"lng":100.5238886},"viewport":{"northeast":{"lat":13.80702992989272,"lng":100.5255146798927},"southwest":{"lat":13.80433027010728,"lng":100.5228150201073}}},"icon":"https:\/\/maps.gstatic.com\/mapfiles\/place_api\/icons\/restaurant-71.png","id":"9ae33b1866a8f6aa75c8767012811639703dd1cd","name":"The Pizza Company","photos":[{"height":3456,"html_attributions":["<a href=\"https:\/\/maps.google.com\/maps\/contrib\/110372191698158794359\/photos\">Rati Watanatada<\/a>"],"photo_reference":"CmRaAAAA9EL1WB6JYxMfNu4vOFJznJeF6cik98eq7RMYI-fnAQD3r0jeo28YRG_0PMq3mkHbuRwIlL-9zUApeAUvLg4XnW8EIsx9ct7efuIAeZcokApkpYXg4erLp-nexPFGR6M7EhCwjNLkFbvU9xvq50QDL_vQGhRnHKKdRQTBY4MT8j5FzrojjChwEw","width":4608}],"place_id":"ChIJ_zIR4kWb4jARGqmUEOmn1c0","plus_code":{"compound_code":"RG4F+7H Bangkok","global_code":"7P52RG4F+7H"},"price_level":2,"rating":5,"reference":"ChIJ_zIR4kWb4jARGqmUEOmn1c0","types":["restaurant","food","point_of_interest","establishment"],"user_ratings_total":2},{"formatted_address":"829, Tesco Lotus Prachachuen, Pracharat Sai 2 Road, Bang Sue, Khet Bang Sue, Bangkok, 10800, 10800","geometry":{"location":{"lat":13.8060988,"lng":100.533928},"viewport":{"northeast":{"lat":13.80747002989272,"lng":100.5351816298927},"southwest":{"lat":13.80477037010728,"lng":100.5324819701073}}},"icon":"https:\/\/maps.gstatic.com\/mapfiles\/place_api\/icons\/restaurant-71.png","id":"5e424016d85f433a4a3b315f54cb3c1a8760877f","name":"MK Restaurants","opening_hours":{"open_now":true},"photos":[{"height":3024,"html_attributions":["<a href=\"https:\/\/maps.google.com\/maps\/contrib\/118161780729145724847\/photos\">Suporn Pongnumkul<\/a>"],"photo_reference":"CmRaAAAA7WChunkXaY7hlUQ80FzNmqC-_1Iy4imwbbHkR9iIoxhx5XP-GGQwmnKq5V_Dx0Ci89RCeZEeqR_P0kYn3TPf7nr-Z8mpCkCdyF_lwYKgzALx3iutlMt1LVc3N1PVwxmpEhCT1Df_26ejrBR3qDENN9iPGhSqxNWWruKZQXbxLuz-e_JA6QBQ8g","width":4032}],"place_id":"ChIJ_1dwfXSc4jAREdfKFF0OsJQ","plus_code":{"compound_code":"RG4M+CH Bangkok","global_code":"7P52RG4M+CH"},"price_level":2,"rating":3.7,"reference":"ChIJ_1dwfXSc4jAREdfKFF0OsJQ","types":["restaurant","food","point_of_interest","establishment"],"user_ratings_total":13}]}